ags,name,land,lat,long
14627060,Großenhain,Sachsen,51.3237177055733,13.523043597005133
14627250,Schönfeld,Sachsen,51.32598534428104,13.73891175621467
15081135,Gardelegen,Sachsen-Anhalt,52.50994260681019,11.364554351908978
15083485,Sommersdorf,Sachsen-Anhalt,52.17594774067442,11.099610493182722
15084315,Lützen,Sachsen-Anhalt,51.223052017896364,12.110267941283299
15084132,Finne,Sachsen-Anhalt,51.21382466167718,11.433172501142858
15084565,Wetterzeube,Sachsen-Anhalt,51.00173557447631,12.041880540886924
15086080,Jerichow,Sachsen-Anhalt,52.44814828394488,12.166964797850111
15087101,Brücken-Hackpfüffel,Sachsen-Anhalt,51.429720529690336,11.192596006021585
16051000,Erfurt,Thüringen,50.9832500388932,11.020221507963768
16061048,Hohengandern,Thüringen,51.36664945725185,9.946942144784071
16061049,Hohes Kreuz,Thüringen,51.4151728879755,10.104423597909966
16061085,Schwobfeld,Thüringen,51.28859743264627,10.087449308796444
16062054,Urbach,Thüringen,51.48840600807526,10.91792434629176
16063028,Frankenroda,Thüringen,51.10191198557512,10.291322364832869
16063015,Dermbach,Thüringen,50.729381741463854,10.123740556786137
16064038,Kutzleben,Thüringen,51.1978589424975,10.880431918993205
16064019,Großvargula,Thüringen,51.11568189015087,10.775353651883957
16066047,Oberhof,Thüringen,50.70460906254616,10.717173367187698
16066005,Belrieth,Thüringen,50.53773064044211,10.499525678521296
16067009,Dachwig,Thüringen,51.080145679792814,10.861325061763461
16068034,Kölleda,Thüringen,51.21798710595304,11.274088070319507
16068036,Markvippach,Thüringen,51.07451243823476,11.180803180011338
16070006,Bösleben-Wüllersleben,Thüringen,50.81538344337578,11.067687221770438
16073111,Unterwellenborn,Thüringen,50.6635893410926,11.45127751476337
16073035,Hohenwarte,Thüringen,50.607485844902975,11.493373584950664
16074052,Lindig,Thüringen,50.78916082687754,11.615715227751867
16075062,Bad Lobenstein,Thüringen,50.45045270525135,11.63351480109685
16075109,Tegau,Thüringen,50.64999433666432,11.870146487978174
16075006,Bodelwitz,Thüringen,50.68137731706341,11.622755745931007
16076041,Langenwolschendorf,Thüringen,50.63436696519503,11.947617278845186
01002000,Kiel,Schleswig-Holstein,54.324773248390564,10.132517593630558
01051076,Neufeld,Schleswig-Holstein,53.922762557420604,9.028611891456206
01051134,Windbergen,Schleswig-Holstein,54.04309127248235,9.12713946796887
01051138,Tensbüttel-Röst,Schleswig-Holstein,54.112147367078144,9.239205131067747
01053013,Borstorf,Schleswig-Holstein,53.60908314462342,10.552654986963274
01053019,Buchhorst,Schleswig-Holstein,53.391738871715994,10.569391822293133
01053074,Krukow,Schleswig-Holstein,53.41812837883802,10.47839243804637
01054011,Behrendorf,Schleswig-Holstein,54.56310579665503,9.229155553427947
01055028,Malente,Schleswig-Holstein,54.18780460762794,10.573589855548157
01057059,Postfeld,Schleswig-Holstein,54.2034019387566,10.202374416394752
01057088,Wisch,Schleswig-Holstein,54.41962161965841,10.343685995719314
01058150,Schwedeneck,Schleswig-Holstein,54.46325573039092,10.085681795593839
01058091,Krogaspe,Schleswig-Holstein,54.12555518816472,9.929021059696234
01058061,Gokels,Schleswig-Holstein,54.10959000542806,9.465958100588287
01058131,Rade b.Hohenwestedt,Schleswig-Holstein,54.102229046591916,9.722311038888732
01058159,Tappendorf,Schleswig-Holstein,54.10213739763242,9.694567644528068
01059120,Harrislee,Schleswig-Holstein,54.811729661251626,9.383286425433756
01059115,Großenwiehe,Schleswig-Holstein,54.70294055155284,9.262945005398517
01060099,Wiemersdorf,Schleswig-Holstein,53.9621358020734,9.91337875980793
01060026,Gönnebek,Schleswig-Holstein,54.04839642408509,10.172825812080063
01060036,Hasenmoor,Schleswig-Holstein,53.90971500290552,10.008679776943602
01060100,Winsen,Schleswig-Holstein,53.83003426030562,10.015130436198135
01061013,Bokelrehm,Schleswig-Holstein,54.04189579811945,9.415864147019144
03151022,Ribbesbüttel,Niedersachsen,52.430574712744495,10.497125548386835
03158033,Veltheim (Ohe),Niedersachsen,52.225125551301325,10.676314680432117
03159010,Duderstadt,Niedersachsen,51.51821039604053,10.24650405142596
03159036,Walkenried,Niedersachsen,51.60197845167284,10.612974552463665
03159006,Bodensee,Niedersachsen,51.60623092419576,10.134451673844776
03241020,Wennigsen (Deister),Niedersachsen,52.26083232062474,9.578083207169763
03251031,Scholen,Niedersachsen,52.74158295859107,8.770374014100172
03254013,Eime,Niedersachsen,52.064118149377826,9.699869128565721
03255028,Lüerdissen,Niedersachsen,51.95549475555475,9.62111008090018
03352062,Geestland,Niedersachsen,53.61891807336805,8.777900475595722
03354020,Prezelle,Niedersachsen,52.95569240580262,11.390933867842831
03355049,Amt Neuhaus,Niedersachsen,53.246179230475576,10.979538226413734
03358019,Schneverdingen,Niedersachsen,53.12589691942563,9.80299605532012
03359037,Sauensiek,Niedersachsen,53.38722762577884,9.563326196760126
03359016,Estorf,Niedersachsen,53.561596599668086,9.201134939254098
03360006,Ebstorf,Niedersachsen,53.02529212115127,10.41648145265026
03361003,Dörverden,Niedersachsen,52.84274044990356,9.268121036411726
03451008,Wiefelstede,Niedersachsen,53.25407328188218,8.105674660990644
03452002,Baltrum,Niedersachsen,53.727471531587895,7.39943756195469
03453003,Cappeln (Oldenburg),Niedersachsen,52.789639797407446,8.087891465326365
03453004,Cloppenburg,Niedersachsen,52.85633434666377,8.036647263545007
03453007,Friesoythe,Niedersachsen,53.00757985142008,7.843633702106204
03454021,Herzlake,Niedersachsen,52.679147375913466,7.625272920600742
03457010,Hesel,Niedersachsen,53.30796281454327,7.608725061294954
03458013,Wardenburg,Niedersachsen,53.05294636572364,8.155234285165859
03459004,Bad Iburg,Niedersachsen,52.147824716620185,8.053447155812467
03459026,Merzen,Niedersachsen,52.48235325477396,7.796872365157033
03461009,Stadland,Niedersachsen,53.41989317257219,8.392670201686476
05113000,Essen,Nordrhein-Westfalen,51.43385928801743,7.017114254435396
05158024,Mettmann,Nordrhein-Westfalen,51.25709256807913,6.9781870824046734
05166004,Brüggen,Nordrhein-Westfalen,51.26325582907764,6.1642247112458985
05366028,Mechernich,Nordrhein-Westfalen,50.59122847966806,6.64795476102851
05378024,Overath,Nordrhein-Westfalen,50.944945231456835,7.295004587516979
05378028,Rösrath,Nordrhein-Westfalen,50.906256719551585,7.183953458341222
05566056,Mettingen,Nordrhein-Westfalen,52.32528653311814,7.77971473327699
05570008,Beckum,Nordrhein-Westfalen,51.760554497976784,8.04666000788892
05770024,Minden,Nordrhein-Westfalen,52.300701405225965,8.898361188260047
05774012,Borchen,Nordrhein-Westfalen,51.651610797517165,8.769916360901101
05970028,Bad Laasphe,Nordrhein-Westfalen,50.92706583637734,8.347978655450262
06431012,Hirschhorn (Neckar),Hessen,49.45913530049217,8.888864510905794
06431020,Viernheim,Hessen,49.5584811115659,8.564145432075494
06432002,Babenhausen,Hessen,49.95712907856922,8.949877763969809
06437013,Reichelsheim (Odenwald),Hessen,49.701892859488055,8.856910225953452
06439006,Hohenstein,Hessen,50.196263240971575,8.100735245550185
06533004,Dornburg,Hessen,50.51155312310107,8.022935304884024
06534015,Münchhausen,Hessen,50.95686333592871,8.677219732286389
06632006,Friedewald,Hessen,50.87754687576407,9.8642093441571
06633026,Vellmar,Hessen,51.3628156859066,9.46610218905772
06635004,Battenberg (Eder),Hessen,51.01995428710163,8.604316445574755
06635006,Burgwald,Hessen,51.01136527181692,8.775080560377113
06635022,Willingen (Upland),Hessen,51.29136393887378,8.656004240226192
07131082,Wershofen,Rheinland-Pfalz,50.443918342574,6.823212912185837
07132080,Katzwinkel (Sieg),Rheinland-Pfalz,50.822593889485326,7.801216457855
07132048,Helmeroth,Rheinland-Pfalz,50.738174496850014,7.730798052228016
07132114,Werkhausen,Rheinland-Pfalz,50.72885378830113,7.53746212767637
07133006,Bad Kreuznach,Rheinland-Pfalz,49.83740082548264,7.868386355557639
07134094,Wilzenberg-Hußweiler,Rheinland-Pfalz,49.70259329351319,7.222777410554147
07134043,Horbruch,Rheinland-Pfalz,49.87988085178245,7.244045586149762
07135022,Dünfus,Rheinland-Pfalz,50.21693967682722,7.225082793534319
07135008,Beuren,Rheinland-Pfalz,50.08492474970376,7.066062700636324
07135030,Filz,Rheinland-Pfalz,50.1722452061,6.982114984234509
07135032,Forst (Hunsrück),Rheinland-Pfalz,50.08336210749781,7.321650681376038
07135054,Liesenich,Rheinland-Pfalz,50.078305329598024,7.262485648584745
07137217,Niederfell,Rheinland-Pfalz,50.274669480713236,7.480530559809404
07138038,Leutesdorf,Rheinland-Pfalz,50.466450805473265,7.386320775215113
07140015,Biebern,Rheinland-Pfalz,49.994369171818185,7.441904851246435
07140121,Rayerschied,Rheinland-Pfalz,50.02367403957313,7.588289971243544
07140144,Simmern/Hunsrück,Rheinland-Pfalz,49.98270767044635,7.53263421014946
07140031,Dörth,Rheinland-Pfalz,50.158771191483766,7.585207083080317
07141062,Horhausen,Rheinland-Pfalz,50.35780775182072,7.881062225045799
07141077,Laurenburg,Rheinland-Pfalz,50.3360502200535,7.911227097535071
07141015,Bogel,Rheinland-Pfalz,50.184435249026194,7.797246364946229
07141084,Marienfels,Rheinland-Pfalz,50.24224665529423,7.80391931828702
07141079,Lierschied,Rheinland-Pfalz,50.1735131718769,7.750490930357912
07141121,Sankt Goarshausen,Rheinland-Pfalz,50.162622738957246,7.709050335809989
07141003,Attenhausen,Rheinland-Pfalz,50.29242814958621,7.8742831420291735
07141127,Schweighausen,Rheinland-Pfalz,50.28419769114783,7.75704131332555
07141141,Zimmerschied,Rheinland-Pfalz,50.35420880683017,7.7925189972572495
07141081,Lohrheim,Rheinland-Pfalz,50.314353997357564,8.040302635206633
07141088,Mittelfischbach,Rheinland-Pfalz,50.25279439902706,7.960118476207665
07141093,Netzbach,Rheinland-Pfalz,50.31752387449739,8.093949994663722
07143282,Oberrod,Rheinland-Pfalz,50.59201302851492,8.132571908047572
07143309,Westernohe,Rheinland-Pfalz,50.59477052017319,8.101137912251227
07143311,Willingen,Rheinland-Pfalz,50.665574498277834,8.096805320954132
07143080,Weroth,Rheinland-Pfalz,50.46510190777874,7.951429558047549
07143003,Bannberscheid,Rheinland-Pfalz,50.46972047290185,7.840457949572552
07143060,Ötzingen,Rheinland-Pfalz,50.50894184737558,7.837954132300398
07231012,Brauneberg,Rheinland-Pfalz,49.88248027918446,6.995873152897984
07231091,Musweiler,Rheinland-Pfalz,50.007550460973576,6.803537292820146
07231020,Diefenbach,Rheinland-Pfalz,50.036075580194286,6.950031956933949
07231057,Hontheim,Rheinland-Pfalz,50.06378897478267,6.995743138262477
07232301,Roscheid,Rheinland-Pfalz,50.11987445556935,6.178171621856532
07232090,Niederraden,Rheinland-Pfalz,49.98521877588226,6.327739542209588
07232202,Auw bei Prüm,Rheinland-Pfalz,50.29434467066747,6.333410880392912
07232296,Prüm,Rheinland-Pfalz,50.20462201060696,6.402286877387523
07232013,Bettingen,Rheinland-Pfalz,49.94430380415336,6.418078524080087
07232061,Idesheim,Rheinland-Pfalz,49.876444986137415,6.56351042147327
07232098,Oberweiler,Rheinland-Pfalz,50.04698004593948,6.432240742237588
07233074,Udler,Rheinland-Pfalz,50.13826454250787,6.868166239142861
07233084,Winkel (Eifel),Rheinland-Pfalz,50.14603005209035,6.950096004207509
07233201,Arbach,Rheinland-Pfalz,50.284171570024746,7.030931855696891
07233204,Birresborn,Rheinland-Pfalz,50.17476607324642,6.629749692320387
07235144,Wawern,Rheinland-Pfalz,49.65050995562736,6.540551475654956
07235038,Gutweiler,Rheinland-Pfalz,49.7150942777534,6.728498626361996
07235052,Irsch,Rheinland-Pfalz,49.596413622743455,6.618676816917914
07331043,Lonsheim,Rheinland-Pfalz,49.784763786280415,8.08333908830573
07332022,Gönnheim,Rheinland-Pfalz,49.45108386189241,8.25066463010552
07332006,Bockenheim an der Weinstraße,Rheinland-Pfalz,49.608100017334934,8.186977249092854
07333026,Göllheim,Rheinland-Pfalz,49.58768767758708,8.031358107582273
07333031,Ilbesheim,Rheinland-Pfalz,49.69054469798875,8.070769500379319
07333024,Gehrweiler,Rheinland-Pfalz,49.57215093494545,7.778996205062161
07334024,Rheinzabern,Rheinland-Pfalz,49.11161255927029,8.29224037072255
07334030,Steinweiler,Rheinland-Pfalz,49.116462777173986,8.144663513991114
07335205,Sembach,Rheinland-Pfalz,49.51518147366308,7.865378054262048
07335044,Steinwenden,Rheinland-Pfalz,49.46039669778762,7.511696723095282
07335023,Linden,Rheinland-Pfalz,49.350062680953634,7.645101884030152
07336023,Eßweiler,Rheinland-Pfalz,49.55981227946594,7.557515266931973
07336072,Oberweiler im Tal,Rheinland-Pfalz,49.574207888704905,7.552081539808826
07336501,Quirnbach/Pfalz,Rheinland-Pfalz,49.47864610036846,7.407209351052371
07337083,Wernersberg,Rheinland-Pfalz,49.19075989901254,7.923389007482056
07337079,Vorderweidenthal,Rheinland-Pfalz,49.128012708967425,7.888227361947079
07337066,Rhodt unter Rietburg,Rheinland-Pfalz,49.28567399685961,8.049855383039967
07338007,Dudenhofen,Rheinland-Pfalz,49.32068807066003,8.380526182108184
07339063,Weiler bei Bingen,Rheinland-Pfalz,49.98186685750041,7.823252300312432
07339018,Friesenheim,Rheinland-Pfalz,49.83344138828213,8.257401181930028
07339053,Selzen,Rheinland-Pfalz,49.866389469578465,8.255415760669612
07340030,Lug,Rheinland-Pfalz,49.1825481329293,7.900442675395291
07340220,Reifenberg,Rheinland-Pfalz,49.28357591939504,7.497219324644089
08115054,Grafenau,Baden-Württemberg,48.71289390388053,8.904000099321559
08116012,Bissingen an der Teck,Baden-Württemberg,48.587297989466244,9.503125511821061
08117002,Aichelberg,Baden-Württemberg,48.63151188873612,9.565530459112688
08118063,Pleidelsheim,Baden-Württemberg,48.96142735045576,9.228250959397474
08119020,Fellbach,Baden-Württemberg,48.822029424325756,9.273992233016322
08119075,Sulzbach an der Murr,Baden-Württemberg,49.01193450540435,9.511032207143684
08125113,Langenbrettach,Baden-Württemberg,49.214387466891125,9.39650351519997
08126011,Bretzfeld,Baden-Württemberg,49.15668062615328,9.438731215530087
08126094,Zweiflingen,Baden-Württemberg,49.253894865342566,9.508402004660326
08127073,Satteldorf,Baden-Württemberg,49.18355152780997,10.092390122439701
08127099,Wolpertshausen,Baden-Württemberg,49.164596469753704,9.852584636702872
08127056,Michelbach an der Bilz,Baden-Württemberg,49.068955425233014,9.767433293302862
08127100,Rosengarten,Baden-Württemberg,49.060603350307396,9.70704429837748
08128115,Tauberbischofsheim,Baden-Württemberg,49.622637003913525,9.655415451922522
08211000,Baden-Baden,Baden-Württemberg,48.74846762983878,8.231906156039038
08215096,Karlsbad,Baden-Württemberg,48.90494683199128,8.503128620054849
08215102,Eggenstein-Leopoldshafen,Baden-Württemberg,49.09061720836497,8.38552349016673
08225014,Buchen (Odenwald),Baden-Württemberg,49.5150619892493,9.322068554966375
08225002,Aglasterhausen,Baden-Württemberg,49.36251384308416,8.992967962135246
08226107,Hirschberg an der Bergstraße,Baden-Württemberg,49.50417563474006,8.663317652958616
08235032,Haiterbach,Baden-Württemberg,48.530127134976155,8.645666125559087
08235025,Enzklösterle,Baden-Württemberg,48.65340043232551,8.45471485857255
08236030,Ispringen,Baden-Württemberg,48.9240356751889,8.67445569917012
08237002,Alpirsbach,Baden-Württemberg,48.359007703447766,8.405672414480033
08315056,Horben,Baden-Württemberg,47.935129069277586,7.857112126283955
08315007,Badenweiler,Baden-Württemberg,47.79364789927665,7.682822617663417
08315130,Münstertal/Schwarzwald,Baden-Württemberg,47.853832737204925,7.820592601499992
08316051,Wyhl am Kaiserstuhl,Baden-Württemberg,48.169599821508505,7.649965022687701
08317089,Oberkirch,Baden-Württemberg,48.52387111266536,8.06620864679855
08317100,Ortenberg,Baden-Württemberg,48.449418200105576,7.972182194604962
08317085,Nordrach,Baden-Württemberg,48.41467331989223,8.105703434541866
08325060,Villingendorf,Baden-Württemberg,48.201766517229174,8.584124033439712
08336010,Böllen,Baden-Württemberg,47.79809742758879,7.846007166134534
08336073,Rümmingen,Baden-Württemberg,47.64641209140147,7.650551358808766
08417057,Schömberg,Baden-Württemberg,48.198557366043836,8.755587312089588
08425008,Amstetten,Baden-Württemberg,48.587908207786974,9.899488368243144
08426067,Langenenslingen,Baden-Württemberg,48.16672209920735,9.350398429021107
08437053,Hohentengen,Baden-Württemberg,48.02335496453805,9.381997179362646
09172124,Marktschellenberg,Bayern,47.68300511670786,13.044146278314821
09175132,Vaterstetten,Bayern,48.12715532289171,11.79294307512973
09175131,Oberpframmern,Bayern,48.032190612706756,11.813991291162303
09176138,Kipfenberg,Bayern,48.93897591677876,11.382487745907147
09176165,Walting,Bayern,48.92019938037892,11.30305551428792
09178130,Hallbergmoos,Bayern,48.31409373435779,11.732707863010697
09178133,Hohenkammer,Bayern,48.42581775110324,11.533440216593307
09180116,Farchant,Bayern,47.53465060368985,11.107536670912541
09181116,Egling a.d.Paar,Bayern,48.18558442384213,10.989253342295921
09182124,Kreuth,Bayern,47.62574527380223,11.730191160633634
09183138,Rattenkirchen,Bayern,48.23599971862001,12.31757217918307
09183126,Maitenbeth,Bayern,48.14657618684373,12.09193348041869
09187128,Bad Endorf,Bayern,47.904149845332405,12.301366118378363
09187172,Samerberg,Bayern,47.76133584073783,12.215028222661575
09189133,Obing,Bayern,48.014247484884,12.400546118481536
09190140,Peiting,Bayern,47.80105427997332,10.935104623929568
09190148,Schongau,Bayern,47.81273833575422,10.896321344923589
09271130,Lalling,Bayern,48.85821409435351,13.126264483395557
09271118,Buchhofen,Bayern,48.701642453475486,12.930888832704975
09272120,Grafenau,Bayern,48.8466899813514,13.400414454892687
09273452,Frauenforst,Bayern,48.958902447550024,11.901010229981008
09274127,Ergoldsbach,Bayern,48.691171157466954,12.214221515411442
09275141,Pocking,Bayern,48.39530459693102,13.327537775705915
09276142,Ruhmannsfelden,Bayern,48.9817646839123,12.978559748866376
09276146,Zachenberg,Bayern,48.972867941128136,13.01953176204161
09278192,Straßkirchen,Bayern,48.829756613993396,12.710334641379463
09374155,Schlammersdorf,Bayern,49.79051239713873,11.743216800239571
09374140,Neustadt am Kulm,Bayern,49.82748293804526,11.835261956732879
09377133,Kulmain,Bayern,49.91434580848685,11.909851514259357
09377157,Waldershof,Bayern,49.95238367392773,12.070949248881648
09377115,Ebnath,Bayern,49.95318556586636,11.93875821954421
09471186,Schönbrunn i.Steigerwald,Bayern,49.86596428898252,10.68123729046259
09472140,Gesees,Bayern,49.897876711488415,11.538836483227195
09472464,Prüll,Bayern,49.7733084217051,11.43461892990842
09475137,Issigau,Bayern,50.376394816130365,11.718750429793037
09476152,Ludwigsstadt,Bayern,50.4825339641814,11.373926495603754
09479145,Röslau,Bayern,50.081487749421676,11.982316158254752
09479147,Schirnding,Bayern,50.071870317717384,12.237047003569051
09479456,Meierhöfer Seite,Bayern,50.068533970459036,11.887459024790468
09573126,Seukendorf,Bayern,49.48451989858682,10.882558909580466
09574147,Pommelsbrunn,Bayern,49.50494492518848,11.525819586697823
09577114,Muhr a.See,Bayern,49.160426830399686,10.719295059958315
09671136,Kleinostheim,Bayern,50.01583329088047,9.065368668720545
09672114,Bad Kissingen,Bayern,50.20249660275479,10.059081297745053
09672142,Ramsthal,Bayern,50.12915371184888,10.077822998373255
09673114,Bad Neustadt a.d.Saale,Bayern,50.33274145536942,10.213402928582815
09673174,Trappstadt,Bayern,50.303814517427185,10.570619009311777
09673171,Strahlungen,Bayern,50.282048048095724,10.243944648603721
09673129,Hausen,Bayern,50.49731422051105,10.087502529197625
09673452,Burgwallbacher Forst,Bayern,50.35818459562029,10.076787016162212
09675170,Sulzfeld a.Main,Bayern,49.70868500521773,10.120550580289017
09676119,Eichenbühl,Bayern,49.67659418289572,9.35840320188788
09677122,Burgsinn,Bayern,50.147943167186725,9.645927572716747
09678192,Wasserlosen,Bayern,50.06806467296536,10.024193685407488
09678175,Schwanfeld,Bayern,49.920627912149115,10.133403181275213
09679126,Eisingen,Bayern,49.760093014118034,9.825981421933891
09679202,Veitshöchheim,Bayern,49.840486775896814,9.887692279926963
09679122,Bütthard,Bayern,49.59020903652807,9.88199917673048
09679138,Giebelstadt,Bayern,49.64858118686096,9.936012999930956
09679118,Bieberehren,Bayern,49.508033373469324,10.016192363466116
09774174,Rettenbach,Bayern,48.45527467475056,10.357763865743998
09774192,Waltenhausen,Bayern,48.18621951676165,10.349936894856237
09774185,Thannhausen,Bayern,48.27745543207261,10.478784186519691
09774451,Ebershauser-Nattenhauser Wald,Bayern,48.21013740442868,10.336244562005074
09779131,Donauwörth,Bayern,48.72387540788368,10.772113215919152
09780123,Bad Hindelang,Bayern,47.46689442894587,10.401709767266407
10044112,Lebach,Saarland,49.42484552834878,6.9166407033175945
10045115,Kirkel,Saarland,49.297562430994226,7.25149247321707
12060005,Ahrensfelde,Brandenburg,52.595186425606165,13.599128520849435
12060185,Parsteinsee,Brandenburg,52.932835490116275,14.048076572956203
12061540,Wildau,Brandenburg,52.32119464215338,13.62161688629285
12061470,Spreewaldheide,Brandenburg,51.95005752504683,14.146832358601076
12062128,Falkenberg/Elster,Brandenburg,51.59600963134759,13.22229892716382
12064380,Petershagen/Eggersdorf,Brandenburg,52.530040026106406,13.800899625009286
12065251,Oberkrämer,Brandenburg,52.69456828238166,13.104307139231892
12066228,Neupetershain,Brandenburg,51.61495825139865,14.166335147467917
12066124,Hermsdorf,Brandenburg,51.39972761412525,13.888049118067052
12067120,Eisenhüttenstadt,Brandenburg,52.155530781320465,14.63900626662833
12067124,Erkner,Brandenburg,52.41231201938959,13.763774373598139
12067137,Friedland,Brandenburg,52.09279349856572,14.325484488364744
12068117,Fehrbellin,Brandenburg,52.78666206119687,12.795568265884025
12070028,Berge,Brandenburg,53.24254909074126,11.865578618278475
12071074,Felixsee,Brandenburg,51.60262580124477,14.531681748127983
12073430,Oberuckersee,Brandenburg,53.20041914512125,13.885035555460908
13071001,Alt Schwerin,Mecklenburg-Vorpommern,53.52505536102451,12.33579633828858
13071080,Kratzeburg,Mecklenburg-Vorpommern,53.42352061375233,12.914120116362781
13071161,Woggersin,Mecklenburg-Vorpommern,53.60697635463735,13.223998969607853
13071073,Kieve,Mecklenburg-Vorpommern,53.26763159938269,12.587682721765667
13071144,Torgelow am See,Mecklenburg-Vorpommern,53.54851503825503,12.768654519088292
13071117,Pragsdorf,Mecklenburg-Vorpommern,53.53896744119633,13.394873445415033
13071049,Grapzow,Mecklenburg-Vorpommern,53.71903992762674,13.301014565459822
13072106,Teterow,Mecklenburg-Vorpommern,53.77583973543991,12.591625950892519
13072013,Bernitt,Mecklenburg-Vorpommern,53.876922493357,11.857505337548869
13072004,Altkalen,Mecklenburg-Vorpommern,53.8979699868392,12.728749052920744
13072035,Gnoien,Mecklenburg-Vorpommern,53.97255760221361,12.704761168509435
13072037,Grammow,Mecklenburg-Vorpommern,54.048267494145364,12.61753715230839
13073013,Breege,Mecklenburg-Vorpommern,54.5990628974437,13.35192995529391
13073082,Schlemmin,Mecklenburg-Vorpommern,54.22751101875447,12.6815419745121
13074084,Warin,Mecklenburg-Vorpommern,53.8059997519768,11.746484780274956
13075116,Rossin,Mecklenburg-Vorpommern,53.765745656460076,13.70393625249223
13075154,Züssow,Mecklenburg-Vorpommern,53.96578547363436,13.541521605656975
13076145,Warlitz,Mecklenburg-Vorpommern,53.37203749434134,11.136261283424382
13076118,Rastow,Mecklenburg-Vorpommern,53.44196058587834,11.408461855277533
13076017,Brenz,Mecklenburg-Vorpommern,53.3881117488929,11.65252453813806
13076121,Schossin,Mecklenburg-Vorpommern,53.53648324610871,11.236699554489396
13076147,Warsow,Mecklenburg-Vorpommern,53.54127036265926,11.28617124705615
13076092,Lüttow-Valluhn,Mecklenburg-Vorpommern,53.524286220166076,10.866875273445347
14521160,Ehrenfriedersdorf,Sachsen,50.64543220577862,12.959658132786824
14521320,Johanngeorgenstadt,Sachsen,50.43441071066108,12.695142478430078
14521120,Burkhardtsdorf,Sachsen,50.73245076845508,12.918884221810092
14521270,Grünhainichen,Sachsen,50.76843069764796,13.162685251108545
14522390,Mulda/Sa.,Sachsen,50.793264891955495,13.396803455270273
14522380,Mühlau,Sachsen,50.90039987395625,12.764038483900496
14523060,Bösenbrunn,Sachsen,50.38088932218408,12.07672310064418
14523340,Reichenbach im Vogtland,Sachsen,50.621691991969854,12.299351007323386
14625430,Ottendorf-Okrilla,Sachsen,51.17653942637227,13.821894398244956
14625510,Rammenau,Sachsen,51.158831985678844,14.126634790166548
14625440,Panschwitz-Kuckau,Sachsen,51.21661946321732,14.197431055131979
14627050,Gröditz,Sachsen,51.419220450395386,13.406240985548276
14628010,Altenberg,Sachsen,50.77205737732737,13.770866558254507
14628400,Tharandt,Sachsen,50.966099410245235,13.517045396551483
14730060,Dahlen,Sachsen,51.38221195694589,12.985588678713949
14730030,Beilrode,Sachsen,51.60403638602256,13.052902954206665
15081440,Rohrberg,Sachsen-Anhalt,52.71150921369962,11.01667087172027
15083030,Angern,Sachsen-Anhalt,52.36902067025372,11.772476221681536
15083557,Westheide,Sachsen-Anhalt,52.33280100881228,11.490726615997007
15083020,Altenhausen,Sachsen-Anhalt,52.27012218933699,11.249445824836572
15087412,Südharz,Sachsen-Anhalt,51.53744674506231,11.034086904230266
15090631,Wust-Fischbeck,Sachsen-Anhalt,52.54652562132675,12.100169097987845
16061074,Niederorschel,Thüringen,51.36289720739107,10.429949522441895
16061001,Arenshausen,Thüringen,51.36402793993058,9.978320454641649
16061066,Lindewerra,Thüringen,51.315383013040275,9.956708569456204
16062026,Kleinfurra,Thüringen,51.422739634317786,10.77457470612477
16063076,Treffurt,Thüringen,51.10874096821807,10.210458229832316
16063104,Amt Creuzburg,Thüringen,51.06948099091401,10.280719628325985
16065005,Bellstedt,Thüringen,51.275701418441365,10.79252524091242
16066063,Schmalkalden,Thüringen,50.71351649640393,10.428658099264467
16066012,Birx,Thüringen,50.5281282097565,10.050081619660391
16066017,Einhausen,Thüringen,50.52900325940173,10.46972278551387
16066039,Leutersdorf,Thüringen,50.51609678968811,10.560421600768604
16066059,Rosa,Thüringen,50.71891232946549,10.24909832185524
16069001,Ahlstädt,Thüringen,50.52799660754933,10.685124699158044
16069028,Marisfeld,Thüringen,50.55453705772396,10.564939032700442
16069063,Heldburg,Thüringen,50.27204286803776,10.69497512383555
16070043,Plaue,Thüringen,50.764171948676506,10.896484040517752
16071046,Kranichfeld,Thüringen,50.8452447995867,11.193050440228816
16071009,Buchfart,Thüringen,50.90887826776225,11.339168015078714
16071038,Kiliansroda,Thüringen,50.903555332572154,11.370142964014535
16074077,Renthendorf,Thüringen,50.80378877975589,11.858910869858876
16074079,Rothenstein,Thüringen,50.84787156432578,11.601831587961593
16074003,Bad Klosterlausnitz,Thüringen,50.90979887842421,11.858053293925336
16075103,Seisla,Thüringen,50.647470731829614,11.546007856399239
01051088,Pahlen,Schleswig-Holstein,54.26765023304777,9.290018763751137
01051082,Nordhastedt,Schleswig-Holstein,54.16467343493133,9.18037990328336
01053011,Bliestorf,Schleswig-Holstein,53.771602934929824,10.584199211149128
01053039,Groß Boden,Schleswig-Holstein,53.74958790156245,10.460496821178287
01053121,Sirksfelde,Schleswig-Holstein,53.66380455218201,10.504720126639546
01054163,Wrixum,Schleswig-Holstein,54.709908329772816,8.550550462836302
01054034,Friedrich-Wilhelm-Lübke-Koog,Schleswig-Holstein,54.85608024042078,8.627778660745896
01054068,Klixbüll,Schleswig-Holstein,54.800741386811815,8.894343542642593
01054136,Tinningstedt,Schleswig-Holstein,54.80932036689255,8.937773410632886
01054023,Drage,Schleswig-Holstein,54.35138056368695,9.144080874238421
01054130,Süderhöft,Schleswig-Holstein,54.37920918078172,9.245981769093016
01055044,Scharbeutz,Schleswig-Holstein,54.02549350442233,10.68806417574608
01055046,Fehmarn,Schleswig-Holstein,54.465188709399875,11.148450046900662
01055043,Wangels,Schleswig-Holstein,54.2704038446766,10.772519475130492
01055036,Riepsdorf,Schleswig-Holstein,54.235257540007574,10.97054318773424
01056034,Langeln,Schleswig-Holstein,53.80050291825905,9.857809834856356
01056047,Tangstedt,Schleswig-Holstein,53.6854390630061,9.856383064705923
01057022,Grebin,Schleswig-Holstein,54.210276122214715,10.489535005351588
01057058,Pohnsdorf,Schleswig-Holstein,54.24846505106887,10.22812507738967
01057056,Passade,Schleswig-Holstein,54.36383908262656,10.31927011903959
01058043,Eckernförde,Schleswig-Holstein,54.47249881914443,9.826269668470722
01058086,Jevenstedt,Schleswig-Holstein,54.224861408129094,9.683767112073557
01058155,Stafstedt,Schleswig-Holstein,54.172671706859546,9.658631819028603
01058026,Bovenau,Schleswig-Holstein,54.34001706852498,9.824775391555399
01058039,Damendorf,Schleswig-Holstein,54.42288082840749,9.73606154201861
01058152,Sehestedt,Schleswig-Holstein,54.36921212887467,9.82146401940078
01058166,Waabs,Schleswig-Holstein,54.53050080320629,9.96686021083169
01058113,Nienborstel,Schleswig-Holstein,54.143312504649835,9.6101344499471
01059043,Jagel,Schleswig-Holstein,54.453737570342945,9.539001539205188
01059147,Nieby,Schleswig-Holstein,54.77940012733582,9.926895332330185
01059087,Tetenhusen,Schleswig-Holstein,54.355980306847364,9.477618243103125
01060007,Bark,Schleswig-Holstein,53.91397964490871,10.161209758234152
01060015,Bühnsdorf,Schleswig-Holstein,53.88606566681931,10.394610382684151
01060018,Dreggers,Schleswig-Holstein,53.88016934456856,10.34387096270981
01060079,Stipsdorf,Schleswig-Holstein,53.94494647504919,10.345680113370223
01061056,Kremperheide,Schleswig-Holstein,53.88946339913907,9.484288800855973
01061106,Vaalermoor,Schleswig-Holstein,53.97953599689655,9.332292779613569
01062019,Grabau,Schleswig-Holstein,53.808470633965186,10.271632296592934
01062022,Großensee,Schleswig-Holstein,53.61680106784952,10.334186034217426
03151013,Isenbüttel,Niedersachsen,52.44331807622781,10.583225479200063
03154014,Lehre,Niedersachsen,52.34043737200037,10.676349602613707
03154501,Brunsleberfeld,Niedersachsen,52.18688103195064,10.84660394839646
03159027,Rhumspringe,Niedersachsen,51.5907674731347,10.292638253398014
03241008,Isernhagen,Niedersachsen,52.456727393141975,9.850247178169166
03241011,Lehrte,Niedersachsen,52.381329730240154,10.018260619973377
03251045,Wehrbleck,Niedersachsen,52.63473769971913,8.672603671387328
03255004,Boffzen,Niedersachsen,51.749870652139045,9.403330799912732
03255025,Kirchbrak,Niedersachsen,51.949683463539245,9.560795415978617
03255033,Polle,Niedersachsen,51.88786351994172,9.391372856155607
03256025,Rehburg-Loccum,Niedersachsen,52.46611792454062,9.192487740794817
03256034,Warmsen,Niedersachsen,52.43928952723104,8.841455775638648
03256014,Hoya,Niedersachsen,52.80608625955587,9.150116642450767
03257007,Beckedorf,Niedersachsen,52.34320503348328,9.308756745694053
03352045,Osterbruch,Niedersachsen,53.77254478882781,8.946057557166215
03353011,Garlstorf,Niedersachsen,53.233941655993696,10.088109320997095
03354026,Wustrow (Wendland),Niedersachsen,52.92553322611417,11.113417712225791
03355002,Amelinghausen,Niedersachsen,53.125051775899465,10.209312241750387
03355024,Melbeck,Niedersachsen,53.17576074798826,10.403735742513627
03357020,Hassendorf,Niedersachsen,53.108615169169376,9.271049560553987
03357007,Breddorf,Niedersachsen,53.30039521745025,9.058917615890904
03357055,Wilstedt,Niedersachsen,53.189610138073135,9.07909058356967
03357057,Zeven,Niedersachsen,53.2779003788767,9.26331939904924
03359011,Deinste,Niedersachsen,53.521241589625205,9.469063580755101
03359012,Dollern,Niedersachsen,53.53813545087126,9.538336017577246
03360012,Jelmstorf,Niedersachsen,53.10389743992545,10.532004616383238
03360013,Lüder,Niedersachsen,52.80422797632544,10.657147504659536
03360020,Soltendieck,Niedersachsen,52.86912828847345,10.776720769629467
03453009,Lastrup,Niedersachsen,52.79241239103197,7.901360418718075
03454014,Geeste,Niedersachsen,52.60992823495814,7.241331590139382
03454018,Haren (Ems),Niedersachsen,52.7958901770263,7.202127635689283
03454025,Kluse,Niedersachsen,52.9310704673599,7.342726012149966
03454001,Andervenne,Niedersachsen,52.51519532662282,7.583518956890192
03454022,Hilkenbrook,Niedersachsen,52.98936316980676,7.69854725169794
03455026,Varel,Niedersachsen,53.387916382695465,8.116754463454665
03456004,Esche,Niedersachsen,52.53801494847994,6.96990035607052
03456010,Isterberg,Niedersachsen,52.35421670925601,7.147004845836502
03461006,Lemwerder,Niedersachsen,53.13690780845361,8.597289849310675
05154012,Geldern,Nordrhein-Westfalen,51.51859446194129,6.310789064652996
05362028,Hürth,Nordrhein-Westfalen,50.87327202347496,6.858476064203441
05366032,Nettersheim,Nordrhein-Westfalen,50.492071453032814,6.663068102228478
05370032,Waldfeucht,Nordrhein-Westfalen,51.06462594971322,6.018109877479874
05382024,Königswinter,Nordrhein-Westfalen,50.700912265755896,7.258838020261504
05382044,Niederkassel,Nordrhein-Westfalen,50.8135986226673,7.050145881191441
05554012,Borken,Nordrhein-Westfalen,51.852271482631814,6.831480753056557
05566096,Wettringen,Nordrhein-Westfalen,52.23127532772594,7.2950975901525705
05754032,Rietberg,Nordrhein-Westfalen,51.802116111689884,8.423049475751384
05758020,Kirchlengern,Nordrhein-Westfalen,52.22138953367098,8.640257069592803
05762004,Bad Driburg,Nordrhein-Westfalen,51.721881655541175,9.038271390342146
05762016,Brakel,Nordrhein-Westfalen,51.70967015011117,9.179994076290583
05762020,Höxter,Nordrhein-Westfalen,51.786507931247556,9.344459197294578
05766020,Detmold,Nordrhein-Westfalen,51.9327118196401,8.881914714496292
05970008,Burbach,Nordrhein-Westfalen,50.74062264881715,8.094340050909258
05974004,Anröchte,Nordrhein-Westfalen,51.5490916018667,8.309138415597676
06432010,Groß-Umstadt,Hessen,49.86901156569709,8.943822117447699
06432012,Messel,Hessen,49.93003924980761,8.755914736737925
06434007,Neu-Anspach,Hessen,50.29339267206544,8.5054777428558
06435022,Niederdorfelden,Hessen,50.18392455775036,8.808516910372362
06436008,Kelkheim (Taunus),Hessen,50.150734818067676,8.433681049287612
06439007,Hünstetten,Hessen,50.24810539447822,8.189615009465811
06439015,Taunusstein,Hessen,50.15529064137025,8.17204223341957
06440014,Limeshain,Hessen,50.26427408226236,8.991073982272093
06531003,Buseck,Hessen,50.617515097795476,8.790151757589177
06532020,Sinn,Hessen,50.64407017619173,8.325256683993478
06533009,Limburg a.d.Lahn,Hessen,50.39518194439849,8.080687851255949
06534007,Dautphetal,Hessen,50.846206634998964,8.557282098269626
06632019,Schenklengsfeld,Hessen,50.8263105797826,9.822927017746379
06633020,Niestetal,Hessen,51.31549642415105,9.586540661827833
06634006,Gilserberg,Hessen,50.947702578719486,9.066131754643218
06634016,Neuental,Hessen,50.995743549641325,9.220670162219387
06635002,Bad Arolsen,Hessen,51.370296861047905,9.025835137870649
06635008,Diemelstadt,Hessen,51.474804408055725,8.995199813804568
07132034,Forst,Rheinland-Pfalz,50.81128936040885,7.684419574317134
07132073,Nauroth,Rheinland-Pfalz,50.696993460061584,7.871312114503791
07132051,Heupelzen,Rheinland-Pfalz,50.7233314714042,7.617797039073484
07133032,Fürfeld,Rheinland-Pfalz,49.772499145966464,7.890600675662343
07133067,Monzingen,Rheinland-Pfalz,49.809803691470144,7.593145242591534
07133114,Windesheim,Rheinland-Pfalz,49.90463270405337,7.799066309216663
07134033,Hahnweiler,Rheinland-Pfalz,49.57140954608952,7.222587007208835
07134051,Leitzweiler,Rheinland-Pfalz,49.591837203213835,7.221954429180333
07134054,Mettweiler,Rheinland-Pfalz,49.57818605402051,7.323095210534293
07134058,Niederhambach,Rheinland-Pfalz,49.68253647886861,7.204058593015103
07134014,Bruchweiler,Rheinland-Pfalz,49.79673783577377,7.2056819399661105
07134025,Fischbach,Rheinland-Pfalz,49.74967811546292,7.388113651458978
07135007,Beilstein,Rheinland-Pfalz,50.09978351301221,7.240878633092098
07135061,Mittelstrimmig,Rheinland-Pfalz,50.07128063786704,7.285883199657403
07135081,Tellig,Rheinland-Pfalz,50.027215752720544,7.251828434293272
07137088,Plaidt,Rheinland-Pfalz,50.38560520839489,7.383631143919899
07137501,Münstermaifeld,Rheinland-Pfalz,50.24188422997689,7.365949360746547
07140082,Lautzenhausen,Rheinland-Pfalz,49.939629865227666,7.272018022316256
07140141,Schwarzen,Rheinland-Pfalz,49.96472057000889,7.327873949315751
07140099,Mutterschied,Rheinland-Pfalz,49.98112296483381,7.566114045066344
07140101,Neuerkirch,Rheinland-Pfalz,50.01969485378015,7.494953189919432
07140138,Schnorbach,Rheinland-Pfalz,49.9913367622914,7.59909498538933
07140139,Schönborn,Rheinland-Pfalz,49.956273356513904,7.474973054500448
07140084,Leiningen,Rheinland-Pfalz,50.13736830276956,7.570204609716515
07140089,Maisborn,Rheinland-Pfalz,50.08192922053511,7.580473198822139
07141016,Bornich,Rheinland-Pfalz,50.13081970885006,7.7648992369323055
07141023,Dachsenhausen,Rheinland-Pfalz,50.257971338954114,7.718061853785271
07141031,Dörscheid,Rheinland-Pfalz,50.110604038143926,7.779671871809059
07141108,Osterspai,Rheinland-Pfalz,50.2375668488004,7.664380064474055
07141122,Sauerthal,Rheinland-Pfalz,50.088903794236586,7.819544858952648
07141501,Braubach,Rheinland-Pfalz,50.26876592839879,7.673708360808799
07141008,Becheln,Rheinland-Pfalz,50.28898122979407,7.712962374815315
07141082,Lollschied,Rheinland-Pfalz,50.26570424715112,7.870294770050713
07143205,Atzelgift,Rheinland-Pfalz,50.69411846116008,7.833472731149978
07143257,Limbach,Rheinland-Pfalz,50.701271962593886,7.798035056281843
07143032,Höhr-Grenzhausen,Rheinland-Pfalz,50.43863295674688,7.679624033122151
07143025,Hartenfels,Rheinland-Pfalz,50.57856352508877,7.7882698001205295
07143067,Selters (Westerwald),Rheinland-Pfalz,50.526826715434304,7.752117503429825
07143502,Mähren,Rheinland-Pfalz,50.521898829108565,7.923187898659025
07143308,Westerburg,Rheinland-Pfalz,50.56250647257373,7.967187947582314
07143042,Leuterod,Rheinland-Pfalz,50.49281699881482,7.806946012728463
07143047,Mogendorf,Rheinland-Pfalz,50.49072695538872,7.749817631215113
07231092,Neumagen-Dhron,Rheinland-Pfalz,49.84888453306174,6.909605115848094
07231032,Etgert,Rheinland-Pfalz,49.78338800661534,7.019282521829481
07231122,Talling,Rheinland-Pfalz,49.76096624469554,6.957191049958398
07231010,Binsfeld,Rheinland-Pfalz,49.96245014812655,6.712158402311011
07231026,Eisenschmitt,Rheinland-Pfalz,50.05279235872458,6.72800167542627
07232212,Dahnen,Rheinland-Pfalz,50.08719128810748,6.145275641189715
07232069,Kruchten,Rheinland-Pfalz,49.89718556446876,6.319993311583111
07232102,Utscheid,Rheinland-Pfalz,49.992394904795724,6.353022872222196
07232117,Scheuern,Rheinland-Pfalz,50.025146741867005,6.31450910031905
07232256,Lasel,Rheinland-Pfalz,50.115274088540446,6.454042270631003
07232101,Orsfeld,Rheinland-Pfalz,50.03100009934036,6.628178775019066
07232273,Neuheilenbach,Rheinland-Pfalz,50.11057375080937,6.557108404747873
07233052,Niederstadtfeld,Rheinland-Pfalz,50.156620555717645,6.75949830171789
07233032,Hörschhausen,Rheinland-Pfalz,50.242193868775495,6.93447796522679
07233205,Bodenbach,Rheinland-Pfalz,50.31218388714241,6.853765377224352
07233208,Brücktal,Rheinland-Pfalz,50.317896330028724,6.979785106553735
07233216,Horperath,Rheinland-Pfalz,50.24692786491937,6.953282563646046
07233239,Schüller,Rheinland-Pfalz,50.33327750294345,6.5649187008510275
07235135,Thomm,Rheinland-Pfalz,49.743821076723364,6.8005000685610515
07235004,Bekond,Rheinland-Pfalz,49.84799659723148,6.807174293178425
07235081,Mandern,Rheinland-Pfalz,49.597323679554535,6.764960508059357
07331023,Flörsheim-Dalsheim,Rheinland-Pfalz,49.65988488247034,8.206449357016897
07331041,Hohen-Sülzen,Rheinland-Pfalz,49.618597952993234,8.225645804327309
07332012,Ebertsheim,Rheinland-Pfalz,49.56732996033878,8.106931184870144
07333046,Mörsfeld,Rheinland-Pfalz,49.73938554932842,7.930130789092666
07333008,Bisterschied,Rheinland-Pfalz,49.64274214160921,7.745943001505569
07333072,Sitters,Rheinland-Pfalz,49.71146942554176,7.784643992975199
07333084,Würzweiler,Rheinland-Pfalz,49.65266811666458,7.864068653259291
07334011,Hördt,Rheinland-Pfalz,49.16560910736147,8.341036570653642
07334025,Rülzheim,Rheinland-Pfalz,49.15271602856803,8.28173498743662
07335007,Fischbach,Rheinland-Pfalz,49.462716110207296,7.910833188131074
07335009,Frankelbach,Rheinland-Pfalz,49.53097132998931,7.632847845982026
07336036,Hefersweiler,Rheinland-Pfalz,49.606407680434216,7.686220479232825
07336010,Breitenbach,Rheinland-Pfalz,49.43661359679954,7.272760041717926
07336079,Rammelsbach,Rheinland-Pfalz,49.541154539549915,7.442152796623552
07337015,Burrweiler,Rheinland-Pfalz,49.26177844225596,8.04243961617943
07337082,Walsheim,Rheinland-Pfalz,49.247579655123886,8.080947198256844
07337061,Offenbach an der Queich,Rheinland-Pfalz,49.19038806323655,8.19571095987461
07338001,Altrip,Rheinland-Pfalz,49.428457134244574,8.482335786465544
07339058,Trechtingshausen,Rheinland-Pfalz,50.00385928673843,7.83749574340778
07339054,Sörgenloch,Rheinland-Pfalz,49.87849706173384,8.201270630852152
07339064,Weinolsheim,Rheinland-Pfalz,49.81665759414799,8.256029779643633
07339021,Gensingen,Rheinland-Pfalz,49.89568929938242,7.936228194726817
07340005,Darstein,Rheinland-Pfalz,49.152521204526956,7.886487014225595
07340226,Walshausen,Rheinland-Pfalz,49.214486196697926,7.46953427655104
08115052,Weissach,Baden-Württemberg,48.84231114800528,8.921759814943291
08115034,Mötzingen,Baden-Württemberg,48.53660918043301,8.781107714661063
08116015,Denkendorf,Baden-Württemberg,48.6937141603779,9.321079154205982
08116049,Nürtingen,Baden-Württemberg,48.61973705592017,9.340671999932539
08116071,Wendlingen am Neckar,Baden-Württemberg,48.6694800787021,9.391103876551652
08118021,Großbottwar,Baden-Württemberg,49.009169520154416,9.285576738029073
08118077,Ingersheim,Baden-Württemberg,48.96798188044759,9.183769425248563
08125063,Möckmühl,Baden-Württemberg,49.32468472004425,9.35531909281524
08125038,Güglingen,Baden-Württemberg,49.065454498517184,9.001847285765379
08126069,Pfedelbach,Baden-Württemberg,49.153349479467174,9.534184866485544
08127012,Bühlertann,Baden-Württemberg,49.03267338888536,9.930228110130694
08128139,Lauda-Königshofen,Baden-Württemberg,49.55541228780852,9.714614894474174
08136088,Aalen,Baden-Württemberg,48.836118219528856,10.121772533167091
08136065,Schwäbisch Gmünd,Baden-Württemberg,48.785141945021216,9.822586415111827
08136079,Waldstetten,Baden-Württemberg,48.74848013733106,9.82557562861485
08225060,Mudau,Baden-Württemberg,49.535636514350365,9.173823293077673
08225074,Obrigheim,Baden-Württemberg,49.345570993554446,9.059708842104166
08226084,Schwetzingen,Baden-Württemberg,49.38048432397311,8.555490949465964
08226022,Gaiberg,Baden-Württemberg,49.36370316917626,8.739141453741532
08231000,Pforzheim,Baden-Württemberg,48.87642356305545,8.712594170186966
08235035,Höfen an der Enz,Baden-Württemberg,48.80097267678053,8.577825755287341
08236050,Ötisheim,Baden-Württemberg,48.963294210690165,8.800088947788732
08237027,Eutingen im Gäu,Baden-Württemberg,48.47318341173545,8.761709685099069
08315039,Friedenweiler,Baden-Württemberg,47.909921292909786,8.276710666241579
08315113,Titisee-Neustadt,Baden-Württemberg,47.93791084668072,8.189943263603693
08316038,Sasbach am Kaiserstuhl,Baden-Württemberg,48.133593469369835,7.614525494456444
08317097,Ohlsbach,Baden-Württemberg,48.44235787431017,8.002508514240155
08317146,Zell am Harmersbach,Baden-Württemberg,48.34369033979942,8.083131821174272
08325012,Dornhan,Baden-Württemberg,48.35711757562314,8.530194087994179
08325070,Fluorn-Winzeln,Baden-Württemberg,48.29267618558158,8.475039505780343
08325036,Lauterbach,Baden-Württemberg,48.23594379237559,8.323058852852379
08326068,Vöhrenbach,Baden-Württemberg,48.01981011038973,8.294450091984682
08326010,Dauchingen,Baden-Württemberg,48.092937440156724,8.549994573579584
08327018,Geisingen,Baden-Württemberg,47.903595362922644,8.649296641337177
08327025,Immendingen,Baden-Württemberg,47.93823816688041,8.723380343466216
08327057,Emmingen-Liptingen,Baden-Württemberg,47.92966228036966,8.875869467386623
08335035,Hilzingen,Baden-Württemberg,47.78038449020857,8.760386331727638
08335077,Steißlingen,Baden-Württemberg,47.79869751137094,8.915253423700742
08336057,Maulburg,Baden-Württemberg,47.64329175124528,7.778094471562275
08337126,Waldshut-Tiengen,Baden-Württemberg,47.651725970470025,8.2430769272982
08415019,Eningen unter Achalm,Baden-Württemberg,48.4834247945468,9.277553371738222
08415073,Trochtelfingen,Baden-Württemberg,48.305638050029614,9.263419334737117
08415058,Pfronstetten,Baden-Württemberg,48.26855921132515,9.383910235486582
08416018,Hirrlingen,Baden-Württemberg,48.409774709407166,8.900249909900214
08417014,Dautmergen,Baden-Württemberg,48.24188375975121,8.748256445710737
08417029,Hausen am Tann,Baden-Württemberg,48.20367557273406,8.83581810859736
08425084,Nellingen,Baden-Württemberg,48.54032540366896,9.78733700409279
08426006,Allmannsweiler,Baden-Württemberg,48.02885685161004,9.596156253659625
08437088,Pfullendorf,Baden-Württemberg,47.91869825747129,9.257967424172318
09171125,Neuötting,Bayern,48.2422625749911,12.745551456729423
09173451,Pupplinger Au,Bayern,47.91067238999978,11.450174490377266
09174137,Pfaffenhofen a.d.Glonn,Bayern,48.2990142358066,11.144819983483147
09175133,Pliening,Bayern,48.19832607854663,11.795293135745009
09175451,Anzinger Forst,Bayern,48.135484265961956,11.90279065446929
09176123,Eichstätt,Bayern,48.889263301074365,11.195466500015861
09176164,Titting,Bayern,49.00090795635093,11.21762607482593
09177135,Pastetten,Bayern,48.207082744031744,11.941140813791446
09179117,Egenhofen,Bayern,48.26071547088221,11.185158940239766
09187116,Babensham,Bayern,48.08807720391168,12.295444480795219
09189161,Vachendorf,Bayern,47.84226999926978,12.597242796169416
09190133,Ingenried,Bayern,47.80784516800918,10.784460301762284
09271138,Niederalteich,Bayern,48.76704722848092,13.026401032701944
09272452,Frauenberger und Duschlberger Wald,Bayern,48.80304687013139,13.761332485070051
09274114,Altfraunhofen,Bayern,48.44598330289206,12.189799337065795
09275131,Kößlarn,Bayern,48.36968519746362,13.124547700101292
09275134,Neuhaus a.Inn,Bayern,48.44996027028011,13.411292414341622
09275143,Rotthalmünster,Bayern,48.3806584931994,13.1957749690115
09276113,Arnbruck,Bayern,49.13630784264755,12.988623146998565
09276138,Regen,Bayern,48.970000239947396,13.122345160799709
09372113,Arrach,Bayern,49.19312154071089,12.994086343423099
09372126,Furth im Wald,Bayern,49.30953508414788,12.83461730768329
09372163,Tiefenbach,Bayern,49.44240386999644,12.589985612023368
09373147,Neumarkt i.d.OPf.,Bayern,49.282490316151964,11.473262172181132
09374132,Leuchtenberg,Bayern,49.58836623173857,12.263806404413975
09471169,Pettstadt,Bayern,49.83109117568933,10.928863135473208
09472139,Gefrees,Bayern,50.094126117087896,11.732769325900671
09472176,Plankenfels,Bayern,49.88999994764075,11.33939344318915
09472155,Hummeltal,Bayern,49.86961152866975,11.49859634929381
09472166,Mistelbach,Bayern,49.91223538959745,11.507612908525939
09473132,Großheirath,Bayern,50.178577733984824,10.920420749850313
09474124,Egloffstein,Bayern,49.7138432034428,11.26291818296103
09474134,Hausen,Bayern,49.69791112323931,11.018841528608265
09474122,Effeltrich,Bayern,49.66294829430463,11.107778105785869
09474119,Dormitz,Bayern,49.59887379595866,11.118852189036426
09475452,Gerlaser Forst,Bayern,50.32428611593869,11.6261552394209
09478144,Marktzeuln,Bayern,50.165277633289584,11.17799437919108
09479453,Kaiserhammer Forst-Ost,Bayern,50.11928505831279,12.12640936288972
09571135,Dietenhofen,Bayern,49.401104305059754,10.684611702590749
09571165,Heilsbronn,Bayern,49.34748409036507,10.800297802799879
09571196,Sachsen b.Ansbach,Bayern,49.286163331819196,10.65421280303832
09571152,Gebsattel,Bayern,49.34218439311145,10.21456212813625
09571137,Dombühl,Bayern,49.25528453550088,10.297421406913319
09572141,Marloffstein,Bayern,49.62289286470802,11.055048051761835
09573114,Cadolzburg,Bayern,49.45392024985255,10.843607394746702
09574150,Reichenschwand,Bayern,49.51917789368677,11.374213180627258
09574145,Offenhausen,Bayern,49.441247434880594,11.419579032155914
09574458,Haimendorfer Forst,Bayern,49.46092689259854,11.238140126113885
09575134,Ippesheim,Bayern,49.606745890926646,10.223061720282676
09575133,Illesheim,Bayern,49.46321357692833,10.40462844811099
09576137,Rednitzhembach,Bayern,49.29824030242489,11.068826337555215
09577151,Nennslingen,Bayern,49.04374571962751,11.153765937948643
09671152,Schöllkrippen,Bayern,50.09455155533243,9.237161924628847
09672138,Oberleichtersbach,Bayern,50.27632528925958,9.804321360899724
09673147,Nordheim v.d.Rhön,Bayern,50.488985973060416,10.193080074827458
09673451,Bundorfer Forst,Bayern,50.224555399990955,10.471899581461054
09674153,Riedbach,Bayern,50.10404948688964,10.439621527798337
09675165,Schwarzach a.Main,Bayern,49.80330154234188,10.233852759615244
09676131,Kirchzell,Bayern,49.60731730880052,9.142900369435168
09677182,Schollbrunn,Bayern,49.83229678892015,9.475877490903802
09679452,Guttenberger Wald,Bayern,49.73212879113529,9.867126071529764
09771168,Steindorf,Bayern,48.21302517774641,11.021251054049012
09772184,Neusäß,Bayern,48.39302929198822,10.809170277599772
09774143,Ichenhausen,Bayern,48.37541697370107,10.28212646417418
09775118,Buch,Bayern,48.23057489068985,10.196300937149466
09776120,Nonnenhorn,Bayern,47.576803398878745,9.615014788190505
09778221,Kettershausen,Bayern,48.19074276735057,10.265332775229702
09778111,Amberg,Bayern,48.070601345291564,10.68892981562128
09779187,Münster,Bayern,48.61966898488819,10.905939135297613
09780134,Ofterschwang,Bayern,47.497326455267725,10.237488527656495
09780127,Missen-Wilhams,Bayern,47.598444830459805,10.111318922752595
12060250,Sydower Fließ,Brandenburg,52.7305954725944,13.717426967079458
12061329,Märkische Heide,Brandenburg,52.046884293869596,14.012430773250838
12061448,Schwerin,Brandenburg,52.147478015188085,13.641820629931198
12061352,Neu Zauche,Brandenburg,51.941428585991254,14.053754250106449
12062341,Mühlberg/Elbe,Brandenburg,51.46491838498192,13.23730155797671
12062492,Tröbitz,Brandenburg,51.59961425273095,13.438051593606506
12064290,Lindendorf,Brandenburg,52.49807122780794,14.446620359044259
12064482,Vierlinden,Brandenburg,52.519676635925,14.31004907453963
12065117,Großwoltersdorf,Brandenburg,53.08898917768014,13.10723419989368
12066188,Lindenau,Brandenburg,51.40347902998095,13.736579440643403
12070008,Bad Wilsnack,Brandenburg,52.973115117130085,11.93158902665538
12070241,Legde/Quitzöbel,Brandenburg,52.912964422927715,11.982507288132737
12072232,Luckenwalde,Brandenburg,52.089533077894174,13.151812097128186
12073404,Mittenwalde,Brandenburg,53.186201112982204,13.673941709037134
13071147,Userin,Mecklenburg-Vorpommern,53.32226438633903,12.973445688697701
13071097,Melz,Mecklenburg-Vorpommern,53.31097924101437,12.602231926605967
13071103,Moltzow,Mecklenburg-Vorpommern,53.632510632096505,12.648114408182545
13071026,Cölpin,Mecklenburg-Vorpommern,53.520264686983104,13.442991849539673
13071048,Grammentin,Mecklenburg-Vorpommern,53.753285585651106,12.906155511070269
13071142,Stavenhagen,Mecklenburg-Vorpommern,53.705567637243966,12.908386590662262
13071153,Voigtsdorf,Mecklenburg-Vorpommern,53.56181650303976,13.657636955031206
13072007,Bartenshagen-Parkentin,Mecklenburg-Vorpommern,54.08670781038166,11.966577996788818
13072040,Groß Wokern,Mecklenburg-Vorpommern,53.74010952985257,12.495093290995962
13072096,Schwasdorf,Mecklenburg-Vorpommern,53.90577443271234,12.617980012982937
13072002,Alt Bukow,Mecklenburg-Vorpommern,54.00392815969319,11.614505461490424
13073080,Sassnitz,Mecklenburg-Vorpommern,54.52501715251314,13.616926630545713
13074056,Neuburg,Mecklenburg-Vorpommern,53.955621394197856,11.614992435438928
13074006,Bibow,Mecklenburg-Vorpommern,53.784166079552904,11.633010742317635
13075007,Bargischow,Mecklenburg-Vorpommern,53.83385484717464,13.770373094349095
13075122,Sarnow,Mecklenburg-Vorpommern,53.755706653610375,13.63105430250731
13075127,Spantekow,Mecklenburg-Vorpommern,53.7718330608079,13.474867424126407
13075012,Blankensee,Mecklenburg-Vorpommern,53.529073170546724,14.297047441004356
13076060,Hagenow,Mecklenburg-Vorpommern,53.44267047118238,11.200551892095834
13076051,Granzin,Mecklenburg-Vorpommern,53.492991228155276,11.955172591383315
13076003,Balow,Mecklenburg-Vorpommern,53.25977013655827,11.718480650855295
13076021,Brunow,Mecklenburg-Vorpommern,53.25997744631158,11.807570004643424
13076049,Gorlosen,Mecklenburg-Vorpommern,53.19781038734708,11.463575525389269
13076058,Groß Laasch,Mecklenburg-Vorpommern,53.340611239773736,11.550113910792746
13076146,Warlow,Mecklenburg-Vorpommern,53.35471940321229,11.409957244673102
13076164,Obere Warnow,Mecklenburg-Vorpommern,53.52618027064886,11.891201005688337
13076158,Zapel,Mecklenburg-Vorpommern,53.55228512959846,11.676735026586664
14521330,Jöhstadt,Sachsen,50.534746438921516,13.133313737263974
14521390,Marienberg,Sachsen,50.62039059114774,13.206480519556651
14521040,Auerbach,Sachsen,50.687853318129434,12.910316692952598
14521420,Niederdorf,Sachsen,50.731255568933996,12.802991658972097
14522430,Oberschöna,Sachsen,50.92285258910629,13.250375880774381
14523030,Bad Brambach,Sachsen,50.22661467260204,12.30362599754184
14524150,Langenweißbach,Sachsen,50.63679429542271,12.604551174516589
14524170,Lichtentanne,Sachsen,50.67012831231456,12.417117686814299
14524010,Bernsdorf,Sachsen,50.777854823318854,12.664650581911209
14524260,Remse,Sachsen,50.85787041533829,12.56355060141181
14625220,Haselbachtal,Sachsen,51.23875792452511,14.020300993040859
14625040,Bischofswerda,Sachsen,51.12139666154348,14.171470639498578
14626270,Lawalde,Sachsen,51.090418858213276,14.591601339017707
14626480,Rothenburg/O.L.,Sachsen,51.35615768900046,14.94471217792324
14627010,Coswig,Sachsen,51.13786476188455,13.577436403028742
14627140,Meißen,Sachsen,51.16219079848385,13.478167176892564
14628250,Müglitztal,Sachsen,50.92444786680925,13.830249631872514
14628150,Hartmannsdorf-Reichenau,Sachsen,50.80836409642792,13.577615123794638
14729250,Machern,Sachsen,51.3757238171218,12.625599412795028
14729020,Belgershain,Sachsen,51.243454789405426,12.55457375225197
14729100,Elstertrebnitz,Sachsen,51.14976363810134,12.226863310505312
14730010,Arzberg,Sachsen,51.52337861799472,13.140270509817013
15083190,Eilsleben,Sachsen-Anhalt,52.14241578497318,11.253330775957329
15084445,Schönburg,Sachsen-Anhalt,51.161004772990914,11.87659088263585
15085287,Selke-Aue,Sachsen-Anhalt,51.86069822852875,11.29105539380785
15086145,Möser,Sachsen-Anhalt,52.21125228216323,11.806911462699354
15087031,Arnstein,Sachsen-Anhalt,51.67326081301767,11.44764664123991
15087440,Wallhausen,Sachsen-Anhalt,51.44878289746769,11.213611509540025
15087260,Klostermansfeld,Sachsen-Anhalt,51.58382880175804,11.502329058879294
15091241,Oranienbaum-Wörlitz,Sachsen-Anhalt,51.831514314110954,12.406770339880948
16061021,Burgwalde,Thüringen,51.388057054778635,10.046965424018781
16064003,Bad Langensalza,Thüringen,51.10002964928531,10.648354410124805
16066023,Floh-Seligenthal,Thüringen,50.77968436040247,10.50977513181341
16066073,Sülzfeld,Thüringen,50.52948912628767,10.358557381305905
16068019,Großneuhausen,Thüringen,51.165187187618145,11.280525124040102
16068041,Ostramondra,Thüringen,51.2069952895008,11.336238303346082
16068021,Großrudestedt,Thüringen,51.096643071378885,11.091183736786295
16068048,Schloßvippach,Thüringen,51.10892373586242,11.145689054946216
16069062,Römhild,Thüringen,50.39291719816768,10.564889686746842
16069041,Schlechtsart,Thüringen,50.32704195475454,10.617681221825789
16070004,Arnstadt,Thüringen,50.806132038379566,10.96284310224757
16071001,Apolda,Thüringen,51.02345058201511,11.50770248411115
16071071,Oettern,Thüringen,50.922023637333695,11.358345131343576
16071093,Vollersroda,Thüringen,50.935474953098705,11.340326864081085
16071061,Neumark,Thüringen,51.08981083300162,11.249044113398677
16073094,Unterweißbach,Thüringen,50.60821940789898,11.165401231140246
16073001,Allendorf,Thüringen,50.653970222921906,11.147989276676578
16074072,Rauda,Thüringen,50.9567435508193,11.944619486827717
16074022,Geisenhain,Thüringen,50.82638246638729,11.712510611539106
16074099,Thierschneck,Thüringen,51.032886796205005,11.764551822398241
16075133,Wurzbach,Thüringen,50.4482743236642,11.524667232392545
16075068,Moßbach,Thüringen,50.67404514760141,11.821539380138578
16075031,Gertewitz,Thüringen,50.67411088925502,11.644757574754333
16075057,Lemnitz,Thüringen,50.71454344940794,11.837434029321525
16075088,Ranis,Thüringen,50.66299950130545,11.570654951622968
16075101,Schmorda,Thüringen,50.64040926540899,11.584548282027734
16076006,Bethenhausen,Thüringen,50.9284401679728,12.192431132666066
16076014,Crimla,Thüringen,50.80155229669612,12.048025072946427
16077028,Lucka,Thüringen,51.08367601313286,12.329679948515846
16077052,Windischleuba,Thüringen,51.017596095254305,12.491748913752092
16077026,Löbichau,Thüringen,50.891239192931984,12.248724066556756
16077017,Heyersdorf,Thüringen,50.848111168371894,12.350943077591335
01051049,Hennstedt,Schleswig-Holstein,54.29688218098879,9.1765174328417
01051117,Tielenhemme,Schleswig-Holstein,54.27189149017418,9.372591002709928
01053083,Lauenburg/Elbe,Schleswig-Holstein,53.37635382109068,10.551756514933418
01053010,Besenthal,Schleswig-Holstein,53.5372652701676,10.730732279416971
01053041,Groß Grönau,Schleswig-Holstein,53.807847527174744,10.743785186890586
01053057,Horst,Schleswig-Holstein,53.622627839480025,10.770348103151411
01053098,Pogeez,Schleswig-Holstein,53.740831274360744,10.716732798697407
01053021,Dahmker,Schleswig-Holstein,53.585085285032065,10.445295406850473
01054015,Borgsum,Schleswig-Holstein,54.707672547919,8.459924895777513
01054099,Ostenfeld (Husum),Schleswig-Holstein,54.45282071001144,9.26428801024113
01054116,Schwabstedt,Schleswig-Holstein,54.403897514034774,9.19852180395744
01054038,Goldelund,Schleswig-Holstein,54.67872218531683,9.096993069540476
01055002,Altenkrempe,Schleswig-Holstein,54.14015321498793,10.782823279664703
01056044,Schenefeld,Schleswig-Holstein,53.601623476836785,9.826151587816497
01056022,Heede,Schleswig-Holstein,53.7883782775055,9.813160438965303
01057085,Wankendorf,Schleswig-Holstein,54.12729742267871,10.183825447383533
01058130,Quarnbek,Schleswig-Holstein,54.33609323326124,9.999887580360053
01058121,Osdorf,Schleswig-Holstein,54.43269461166714,10.01392924216801
01058069,Haby,Schleswig-Holstein,54.39932367635792,9.820954005860292
01058087,Karby,Schleswig-Holstein,54.62545333420045,9.972485315720181
01058162,Thumby,Schleswig-Holstein,54.5862087024753,9.911901352513869
01058174,Winnemark,Schleswig-Holstein,54.61384052314788,9.934659123382197
01059056,Lottorf,Schleswig-Holstein,54.44595226165301,9.576508686409175
01059182,Freienwill,Schleswig-Holstein,54.730781175174094,9.497317675545098
01059144,Meyn,Schleswig-Holstein,54.75063906551443,9.231661285901641
01059041,Hüsby,Schleswig-Holstein,54.49295393375996,9.466096779933851
01060027,Großenaspe,Schleswig-Holstein,53.97776418446804,9.973366424550616
01060064,Nützen,Schleswig-Holstein,53.852473980596535,9.91062327632636
01060082,Struvenhütten,Schleswig-Holstein,53.865464851596045,10.059964344737526
01060081,Strukdorf,Schleswig-Holstein,53.9131943137535,10.483982848353481
01061011,Besdorf,Schleswig-Holstein,54.05511727535626,9.36665498848144
01061018,Brokdorf,Schleswig-Holstein,53.874031104643954,9.321211698901582
01061020,Büttel,Schleswig-Holstein,53.90780122361145,9.224817644154266
01062005,Bargfeld-Stegen,Schleswig-Holstein,53.763517038365244,10.182155850511865
01062021,Grönwohld,Schleswig-Holstein,53.6473017746171,10.412067331417441
03151024,Rühen,Niedersachsen,52.48895011332371,10.88335516936612
03157008,Wendeburg,Niedersachsen,52.33095968784117,10.372242889608884
03158016,Haverlah,Niedersachsen,52.0621563243699,10.309313366444306
03158010,Dorstadt,Niedersachsen,52.09752556487468,10.546313463804518
03158032,Vahlberg,Niedersachsen,52.12677018851414,10.713156367209287
03159039,Wulften am Harz,Niedersachsen,51.65856957661685,10.18069640756268
03159033,Seulingen,Niedersachsen,51.537403331247546,10.153908609946258
03251018,Freistatt,Niedersachsen,52.653837905630496,8.639062435627674
03251008,Borstel,Niedersachsen,52.66498679724529,8.960640060081568
03252004,Coppenbrügge,Niedersachsen,52.10716447353092,9.517089197779029
03254020,Harsum,Niedersachsen,52.209710565471376,10.00067855516395
03255015,Golmbach,Niedersachsen,51.896089883575705,9.534105986608376
03256001,Balge,Niedersachsen,52.706155732026694,9.1609428511964
03256023,Pennigsehl,Niedersachsen,52.63601299122086,9.016844613811273
03257009,Bückeburg,Niedersachsen,52.292098940500516,9.039538568457914
03257005,Bad Eilsen,Niedersachsen,52.24304259223451,9.097007461859587
03351004,Bergen,Niedersachsen,52.78777949472553,9.998731941620512
03351002,Ahnsbeck,Niedersachsen,52.60807681526521,10.294230771548854
03351003,Beedenbostel,Niedersachsen,52.65349590864168,10.256832817696461
03352011,Cuxhaven,Niedersachsen,53.82267056392504,8.695525664878309
03354021,Schnackenburg,Niedersachsen,53.027830251958406,11.53897296085904
03354024,Waddeweitz,Niedersachsen,53.000782390087664,10.957916616871183
03356003,Hambergen,Niedersachsen,53.29878864226725,8.830752135056986
03359004,Balje,Niedersachsen,53.83245066308021,9.111139750928162
03361006,Langwedel,Niedersachsen,52.99963935099883,9.182675937239955
03452020,Norderney,Niedersachsen,53.713811438436835,7.239636120150532
03454026,Lähden,Niedersachsen,52.75266844062577,7.6087544515646535
03454005,Börger,Niedersachsen,52.92724574846203,7.523077317471835
03455025,Bockhorn,Niedersachsen,53.378326787977095,8.011854150667151
03456011,Itterbeck,Niedersachsen,52.502100428134554,6.771139026383342
05114000,Krefeld,Nordrhein-Westfalen,51.34523094027913,6.579677329468132
05382072,Wachtberg,Nordrhein-Westfalen,50.62526559807741,7.117521447160436
05566004,Altenberge,Nordrhein-Westfalen,52.03868728276843,7.478018103342753
05566028,Ibbenbüren,Nordrhein-Westfalen,52.27805214286886,7.707690003533798
05766060,Schieder-Schwalenberg,Nordrhein-Westfalen,51.90196808639137,9.168502025116952
05774020,Delbrück,Nordrhein-Westfalen,51.765417663788924,8.54080616723014
05774040,Bad Wünnenberg,Nordrhein-Westfalen,51.52380715040956,8.732865482055788
05914000,Hagen,Nordrhein-Westfalen,51.34804071477722,7.4975232847052995
05962012,Halver,Nordrhein-Westfalen,51.188660706798835,7.49549001020865
05962060,Werdohl,Nordrhein-Westfalen,51.253248053641215,7.745405441691122
06431013,Lampertheim,Hessen,49.6167256212855,8.468831914222834
06432015,Münster (Hessen),Hessen,49.92679885436483,8.84529202589344
06434002,Friedrichsdorf,Hessen,50.26321520438811,8.633042574774612
06435002,Bad Soden-Salmünster,Hessen,50.29054345417851,9.389877013045021
06435012,Gründau,Hessen,50.236381672885884,9.153471929578817
06437012,Mossautal,Hessen,49.64486649253224,8.915743082154014
06439004,Geisenheim,Hessen,50.03252193020035,7.939351443692558
06533008,Hünfelden,Hessen,50.31838985304311,8.151288956851825
06631005,Ehrenberg (Rhön),Hessen,50.50615715060193,10.00030902183711
06631007,Eiterfeld,Hessen,50.76439264013521,9.815880590292966
06631016,Kalbach,Hessen,50.404376851954176,9.683274301419587
06632001,Alheim,Hessen,51.02881580503721,9.659455747445328
06633030,Wesertal,Hessen,51.59698240337251,9.604776357025434
07131015,Dankerath,Rheinland-Pfalz,50.33785986226513,6.821095412620361
07132018,Daaden,Rheinland-Pfalz,50.741930527013466,7.973272613314426
07132007,Birkenbeul,Rheinland-Pfalz,50.744455621076526,7.624981341304153
07132096,Roth,Rheinland-Pfalz,50.76067600230587,7.706982318896644
07132037,Friesenhagen,Rheinland-Pfalz,50.89377698144599,7.792068057378563
07132098,Scheuerfeld,Rheinland-Pfalz,50.78356343554081,7.844560360920542
07132112,Walterschen,Rheinland-Pfalz,50.68300912898478,7.564492346786693
07133060,Löllbach,Rheinland-Pfalz,49.691624325563794,7.593711935370401
07133501,Bad Sobernheim,Rheinland-Pfalz,49.839747447018354,7.6089437145971255
07133023,Daxweiler,Rheinland-Pfalz,49.98208753461861,7.734720695370549
07133085,Roth,Rheinland-Pfalz,49.94352682826324,7.799450732619874
07134073,Rohrbach,Rheinland-Pfalz,49.585650614337,7.258909419721899
07134002,Achtelsbach,Rheinland-Pfalz,49.63440445800569,7.066349635498652
07134050,Leisel,Rheinland-Pfalz,49.725400091791705,7.192662150170341
07134071,Rinzenberg,Rheinland-Pfalz,49.681893933001916,7.118364189399641
07134090,Vollmersbach,Rheinland-Pfalz,49.74301561861643,7.302137290446203
07134091,Weiden,Rheinland-Pfalz,49.80409541508064,7.30116286246309
07137203,Bendorf,Rheinland-Pfalz,50.436534331676015,7.59452203129026
07137087,Pillig,Rheinland-Pfalz,50.23686221059543,7.3147293292779265
07137228,Weißenthurm,Rheinland-Pfalz,50.41613796070479,7.455824746590738
07137206,Burgen,Rheinland-Pfalz,50.19865072799327,7.391479422622426
07137223,Spay,Rheinland-Pfalz,50.25889924134812,7.641899723849169
07138063,Rheinbrohl,Rheinland-Pfalz,50.50774681055672,7.356945922639788
07138036,Kurtscheid,Rheinland-Pfalz,50.535143169779865,7.461467076950662
07140131,Roth,Rheinland-Pfalz,50.0819266927016,7.461874554478509
07140041,Gemünden,Rheinland-Pfalz,49.89741540723787,7.477616477997269
07140129,Rödern,Rheinland-Pfalz,49.945647111909906,7.447473668826975
07140163,Womrath,Rheinland-Pfalz,49.920010844305864,7.453419956693478
07140002,Altweidelbach,Rheinland-Pfalz,49.998071469092615,7.565286713277804
07140014,Bickenbach,Rheinland-Pfalz,50.118457118917256,7.522604116162685
07141061,Holzheim,Rheinland-Pfalz,50.35079486056036,8.037923786164797
07141009,Berg,Rheinland-Pfalz,50.257514683000934,7.815395923210245
07141060,Holzhausen an der Haide,Rheinland-Pfalz,50.2179208441854,7.913981961342993
07141086,Miellen,Rheinland-Pfalz,50.32204674762959,7.658723718533834
07143277,Nisterau,Rheinland-Pfalz,50.66331201860007,7.985734235862059
07143225,Giesenhausen,Rheinland-Pfalz,50.70341684031334,7.715143798179448
07143252,Kundert,Rheinland-Pfalz,50.71924727423807,7.794091767273754
07143306,Welkenbach,Rheinland-Pfalz,50.62828443634319,7.722478302830785
07143009,Deesen,Rheinland-Pfalz,50.50840723143653,7.69854752953969
07143292,Seck,Rheinland-Pfalz,50.57798316570063,8.037667890985828
07143290,Salz,Rheinland-Pfalz,50.50738131991142,7.968636167488612
07231058,Horath,Rheinland-Pfalz,49.819588281990896,6.977383187542796
07231064,Immert,Rheinland-Pfalz,49.76755151949042,7.02532309321596
07231013,Bruch,Rheinland-Pfalz,49.961155823607,6.783326301360759
07231021,Dierfeld,Rheinland-Pfalz,50.08310271836612,6.894294391696683
07231074,Laufeld,Rheinland-Pfalz,50.07864383671443,6.853350185859382
07231095,Niederöfflingen,Rheinland-Pfalz,50.06105798813076,6.886615021632028
07231114,Schladt,Rheinland-Pfalz,50.039884860627595,6.834114689492331
07231005,Bengel,Rheinland-Pfalz,50.037314742989224,7.051092838494057
07231072,Kröv,Rheinland-Pfalz,49.991457621240464,7.084252302894555
07232201,Arzfeld,Rheinland-Pfalz,50.08675796386897,6.272266693609875
07232217,Eilscheid,Rheinland-Pfalz,50.131925210407445,6.390714921257474
07232002,Alsdorf,Rheinland-Pfalz,49.8878817867483,6.46564093690815
07232127,Übereisenbach,Rheinland-Pfalz,50.00489847649558,6.151562506828471
07232292,Pittenbach,Rheinland-Pfalz,50.1761804427558,6.347389041260711
07232305,Schwirzheim,Rheinland-Pfalz,50.23963289906015,6.531615011779404
07232126,Trimport,Rheinland-Pfalz,49.90480825278608,6.585724502451494
07233065,Schutz,Rheinland-Pfalz,50.126323285157156,6.739631691420966
07233235,Reuth,Rheinland-Pfalz,50.298012939747345,6.4927540573392655
07235070,Korlingen,Rheinland-Pfalz,49.727999610068835,6.722499067630496
07235107,Pluwig,Rheinland-Pfalz,49.68806751704086,6.712901784115319
07235134,Thörnich,Rheinland-Pfalz,49.83534223164376,6.843270114818808
07235033,Greimerath,Rheinland-Pfalz,49.55719202638912,6.683680970245074
07235043,Hentern,Rheinland-Pfalz,49.62191654637103,6.693857389643361
07315000,Mainz,Rheinland-Pfalz,49.97422801098851,8.241503629950277
07331002,Alsheim,Rheinland-Pfalz,49.76383003642558,8.323788655802517
07331047,Mörstadt,Rheinland-Pfalz,49.6603403729403,8.254713154962783
07331030,Gau-Bickelheim,Rheinland-Pfalz,49.835202992175056,8.018524040618559
07331033,Gau-Weinheim,Rheinland-Pfalz,49.85074837851782,8.044548153612881
07333040,Kriegsfeld,Rheinland-Pfalz,49.699412242726964,7.927766773699051
07333071,Sippersfeld,Rheinland-Pfalz,49.54758500362133,7.937022671226414
07333073,Stahlberg,Rheinland-Pfalz,49.661799671982116,7.788892457937018
07333083,Winterborn,Rheinland-Pfalz,49.748345739740685,7.85384563604587
07335002,Bann,Rheinland-Pfalz,49.398567320207725,7.635940127564608
07336074,Odenbach,Rheinland-Pfalz,49.680375974024464,7.64716777271349
07336075,Offenbach-Hundheim,Rheinland-Pfalz,49.62073088032014,7.55517550191427
07336047,Hüffler,Rheinland-Pfalz,49.49672680943489,7.390405508176513
07336098,Theisbergstegen,Rheinland-Pfalz,49.5120232824548,7.444306418295793
07337056,Niederotterbach,Rheinland-Pfalz,49.06653710200448,8.039887148916929
07338019,Mutterstadt,Rheinland-Pfalz,49.44190111554673,8.347213313717122
07338025,Schifferstadt,Rheinland-Pfalz,49.3813662745934,8.37273132725997
07338022,Rödersheim-Gronau,Rheinland-Pfalz,49.432414962378964,8.259017543230943
07339046,Ober-Hilbersheim,Rheinland-Pfalz,49.89894564494654,8.023660072202349
07339042,Nieder-Olm,Rheinland-Pfalz,49.90376070218692,8.202528995305581
07339067,Zornheim,Rheinland-Pfalz,49.887185013876824,8.228949171746379
07339037,Mommenheim,Rheinland-Pfalz,49.88319438126947,8.270506738210162
07340004,Dahn,Rheinland-Pfalz,49.14693862186822,7.759781867488653
07340036,Obersimten,Rheinland-Pfalz,49.1615768532435,7.58235434690681
07340054,Waldfischbach-Burgalben,Rheinland-Pfalz,49.28594323578051,7.663831794402198
08116046,Neuffen,Baden-Württemberg,48.55310296783631,9.368962815058858
08116007,Baltmannsweiler,Baden-Württemberg,48.75019794617031,9.444275695669061
08116027,Hochdorf,Baden-Württemberg,48.693738727015095,9.468143201941482
08117049,Süßen,Baden-Württemberg,48.67246118520759,9.747683926737121
08117058,Wiesensteig,Baden-Württemberg,48.55872583745692,9.60793721205532
08118081,Remseck am Neckar,Baden-Württemberg,48.87744869536152,9.266526069037262
08118054,Murr,Baden-Württemberg,48.96882552704565,9.26325968617321
08127101,Kreßberg,Baden-Württemberg,49.13602166170072,10.191070135302963
08136035,Jagstzell,Baden-Württemberg,49.029158839793865,10.12049676811346
08136082,Westhausen,Baden-Württemberg,48.889899934405804,10.208661151385506
08136034,Iggingen,Baden-Württemberg,48.835321967136686,9.883568887310975
08226038,Ladenburg,Baden-Württemberg,49.47677704966968,8.61548238296487
08226048,Mauer,Baden-Württemberg,49.33790110948615,8.7951092330287
08226097,Wiesenbach,Baden-Württemberg,49.36295415214278,8.825892507956151
08236070,Keltern,Baden-Württemberg,48.89677401151667,8.576349900352573
08315020,Buchenbach,Baden-Württemberg,47.968095797776684,8.027619341421037
08315008,Ballrechten-Dottingen,Baden-Württemberg,47.85709298862803,7.700137779848916
08315111,Sulzburg,Baden-Württemberg,47.82938167125311,7.721773082841882
08317152,Kappel-Grafenhausen,Baden-Württemberg,48.28491817812941,7.778733838929001
08317034,Gengenbach,Baden-Württemberg,48.40590992099966,8.032586841863512
08317110,Renchen,Baden-Württemberg,48.59573354377131,8.01942531036428
08325050,Schenkenzell,Baden-Württemberg,48.33159028698711,8.352814361880492
08326065,Unterkirnach,Baden-Württemberg,48.084214615767536,8.35887647567983
08327009,Deilingen,Baden-Württemberg,48.16972900771154,8.787410072604919
08327040,Reichenbach am Heuberg,Baden-Württemberg,48.13659234605438,8.843646311358022
08335022,Engen,Baden-Württemberg,47.86179787645235,8.771263857035777
08337062,Klettgau,Baden-Württemberg,47.63167622035573,8.418198039278897
08337128,Ühlingen-Birkendorf,Baden-Württemberg,47.721535338442344,8.296092666903178
08415088,Römerstein,Baden-Württemberg,48.500434680703655,9.537456462691813
08416006,Bodelshausen,Baden-Württemberg,48.39855360810862,8.97026684662422
08425039,Erbach,Baden-Württemberg,48.32422016328094,9.86289497006146
08425108,Schelklingen,Baden-Württemberg,48.38343106339211,9.679615806018964
08425141,Blaustein,Baden-Württemberg,48.43186408172161,9.866238373170546
08425014,Beimerstetten,Baden-Württemberg,48.48505836072905,9.97606465002564
08425091,Oberstadion,Baden-Württemberg,48.18774803669303,9.700609041273035
08426121,Unlingen,Baden-Württemberg,48.17398971983728,9.541806805427658
08435067,Deggenhausertal,Baden-Württemberg,47.783636100442656,9.400463559100448
08435010,Daisendorf,Baden-Württemberg,47.711825837512784,9.271082041316484
08436087,Wolpertswende,Baden-Württemberg,47.89460426402175,9.622307898597102
08437124,Herdwangen-Schönach,Baden-Württemberg,47.868049637481846,9.190246446650788
09175127,Markt Schwaben,Bayern,48.19102067169636,11.862105300606217
09175116,Egmating,Bayern,47.9949949406455,11.802263345717222
09176137,Kinding,Bayern,48.99903380774055,11.377481722142331
09176166,Wellheim,Bayern,48.818909653003864,11.099630677788168
09177116,Eitting,Bayern,48.37827728906607,11.870809365562957
09178116,Au i.d.Hallertau,Bayern,48.55010687680112,11.717027384445688
09179123,Germering,Bayern,48.12892747177954,11.3601174825528
09179130,Jesenwang,Bayern,48.16324256790458,11.133685070524294
09180125,Oberammergau,Bayern,47.59626371284638,11.071241032032166
09180126,Oberau,Bayern,47.55999705016801,11.144254359809274
09181140,Schwifting,Bayern,48.04347786541949,10.94008827155712
09181133,Vilgertshofen,Bayern,47.95865880912201,10.917124915915753
09182127,Otterfing,Bayern,47.91454126067459,11.674611046593295
09183136,Polling,Bayern,48.20784822597909,12.539076981081687
09183451,Mühldorfer Hart,Bayern,48.223399241127524,12.432334500116559
09186144,Pörnbach,Bayern,48.61365491629722,11.4715660663027
09189141,Schleching,Bayern,47.72185021756567,12.383176016377561
09272458,Pleckensteiner Wald,Bayern,48.770862069293706,13.791940961092978
09273163,Elsendorf,Bayern,48.69967869913924,11.821510589857908
09274194,Bruckberg,Bayern,48.539429680955074,12.004235966123124
09275114,Aldersbach,Bayern,48.596189477557665,13.056226644222104
09276122,Geiersthal,Bayern,49.046954874427456,12.974456097026707
09277116,Eggenfelden,Bayern,48.40620851977641,12.750749309944219
09278140,Irlbach,Bayern,48.85407413786547,12.742892721950845
09279116,Gottfrieding,Bayern,48.62931828793592,12.535255559202824
09374166,Weiherhammer,Bayern,49.64476113288675,11.993577587222465
09375204,Tegernheim,Bayern,49.03049815914973,12.183277976150983
09376119,Burglengenfeld,Bayern,49.22785660778058,12.003672398502179
09471209,Wattendorf,Bayern,50.02986905287312,11.136414633933637
09472150,Heinersreuth,Bayern,49.97974859287022,11.523491859537554
09472451,Bischofsgrüner Forst,Bayern,50.05364601855935,11.789458289957729
09472468,Veldensteiner Forst,Bayern,49.687920678980355,11.513437476484823
09473454,Köllnholz,Bayern,50.28124522691358,10.852752615604896
09474135,Heroldsbach,Bayern,49.70058086525224,10.973839887515407
09474158,Pinzberg,Bayern,49.69203189850178,11.110494710120237
09478453,Neuensorger Forst,Bayern,50.19511730196104,11.101813775195252
09479129,Kirchenlamitz,Bayern,50.152661252646915,11.950554211298657
09479150,Schönwald,Bayern,50.20148920775932,12.083770137493351
09571145,Feuchtwangen,Bayern,49.17530637174814,10.32115056311034
09571226,Windsbach,Bayern,49.25289294389347,10.843324455077417
09572459,Mark,Bayern,49.65984539113757,10.965119516958
09574112,Altdorf b.Nürnberg,Bayern,49.39353084609258,11.38152347355708
09574128,Happurg,Bayern,49.46526949666886,11.491336694439731
09574451,Behringersdorfer Forst,Bayern,49.49825479003675,11.20014457886058
09575163,Simmershofen,Bayern,49.516084918973526,10.13120225349233
09575118,Diespeck,Bayern,49.59850451222236,10.625916407802897
09575167,Uehlfeld,Bayern,49.66790311417699,10.700262738747519
09577140,Heidenheim,Bayern,48.99572011193602,10.744163523134299
09671124,Haibach,Bayern,49.96175288334594,9.210190693898635
09671139,Laufach,Bayern,50.01284658539382,9.30299687222201
09671153,Sommerkahl,Bayern,50.067698794718815,9.264915519961452
09672135,Münnerstadt,Bayern,50.25241138952904,10.244726495978034
09672121,Elfershausen,Bayern,50.12940634201356,9.974418347803658
09673172,Sulzdorf a.d.Lederhecke,Bayern,50.24407787921413,10.565657060384238
09674190,Rentweinsdorf,Bayern,50.05442115372839,10.7937830848455
09675148,Markt Einersheim,Bayern,49.68712712766298,10.305371919090826
09676124,Faulbach,Bayern,49.79364887262842,9.450962022592874
09676116,Bürgstadt,Bayern,49.72241122712394,9.298671801619872
09676132,Kleinheubach,Bayern,49.721962174389965,9.190663326364282
09677131,Gemünden a.Main,Bayern,50.056529158094456,9.692704488142763
09677148,Karlstadt,Bayern,49.969961738876215,9.743974037844621
09678457,Wustvieler Forst,Bayern,49.90837595307664,10.493883928394744
09679176,Reichenberg,Bayern,49.709744841957246,9.924970261305397
09679130,Estenfeld,Bayern,49.83411383802871,10.015171246026565
09772141,Fischach,Bayern,48.283194248195805,10.650921564395754
09772202,Stadtbergen,Bayern,48.359761180559715,10.831522907438554
09772160,Kleinaitingen,Bayern,48.211460032024426,10.86088551449235
09773153,Medlingen,Bayern,48.57828367964999,10.326137848930781
09774155,Leipheim,Bayern,48.45193937078031,10.203715144997878
09774111,Aletshausen,Bayern,48.198766841,10.400738696398221
09777135,Hopferau,Bayern,47.60820437378223,10.644015334417078
09778139,Fellheim,Bayern,48.074085276382476,10.152171642872773
09779177,Marktoffingen,Bayern,48.9289819090165,10.467214683492067
09780133,Oberstdorf,Bayern,47.368710661383865,10.267971999177275
09780121,Fischen i.Allgäu,Bayern,47.45142965785239,10.267502832048635
10041516,Quierschied,Saarland,49.32254489169642,7.02952006157579
10044118,Schwalbach,Saarland,49.3065631534565,6.832875398993289
12060192,Rüdnitz,Brandenburg,52.72004432555292,13.63202777755245
12062372,Plessa,Brandenburg,51.46985112810644,13.622452505456842
12064128,Falkenhagen (Mark),Brandenburg,52.42986117822393,14.318816380567855
12065084,Fürstenberg/Havel,Brandenburg,53.1565158479568,13.205194986784678
12068052,Breddin,Brandenburg,52.86536160208286,12.209228404640946
12068324,Neustadt (Dosse),Brandenburg,52.84511635475813,12.39377697129797
12069656,Werder (Havel),Brandenburg,52.38338794352055,12.884660634207878
12069028,Bensdorf,Brandenburg,52.416593226382815,12.338451235740331
12070246,Lenzerwische,Brandenburg,53.088462592384126,11.341636845513365
12073069,Boitzenburger Land,Brandenburg,53.25339767644104,13.552771622346798
12073201,Gerswalde,Brandenburg,53.16227665613932,13.750231900466936
12073458,Randowtal,Brandenburg,53.30781699081236,14.079084558181192
13071036,Fünfseen,Mecklenburg-Vorpommern,53.419146714690555,12.393919520928485
13071021,Burg Stargard,Mecklenburg-Vorpommern,53.47652224339245,13.32261571802752
13071158,Werder,Mecklenburg-Vorpommern,53.73970334969312,13.348760828615925
13071163,Wolde,Mecklenburg-Vorpommern,53.684638912209444,13.096480649113895
13072069,Lüssow,Mecklenburg-Vorpommern,53.83826032844669,12.15575619474435
13072071,Mistorf,Mecklenburg-Vorpommern,53.87427699419246,12.158364998533656
13072119,Zehna,Mecklenburg-Vorpommern,53.70603088538493,12.142875589567486
13073014,Buschvitz,Mecklenburg-Vorpommern,54.44117099226871,13.465881205909847
13073030,Glowe,Mecklenburg-Vorpommern,54.56146331703668,13.491814377722784
13073071,Putgarten,Mecklenburg-Vorpommern,54.66820961543216,13.400742781257888
13073059,Neuenkirchen,Mecklenburg-Vorpommern,54.54333818239016,13.335445751842737
13073073,Rambin,Mecklenburg-Vorpommern,54.355141093173984,13.208513983132127
13074002,Bad Kleinen,Mecklenburg-Vorpommern,53.78109689791586,11.44919106153792
13074043,Krembz,Mecklenburg-Vorpommern,53.64443990286819,11.059234950314268
13074068,Roggendorf,Mecklenburg-Vorpommern,53.69508976106781,10.990689400428208
13074071,Rüting,Mecklenburg-Vorpommern,53.792443181771915,11.212271083931052
13075037,Grambin,Mecklenburg-Vorpommern,53.75714648397695,14.007044464396879
13075102,Neuenkirchen,Mecklenburg-Vorpommern,54.129272402377175,13.386396119869582
13075059,Katzow,Mecklenburg-Vorpommern,54.05168830237294,13.66329245928507
13075111,Pudagla,Mecklenburg-Vorpommern,53.96671715501007,14.068981392820264
13075129,Stolpe auf Usedom,Mecklenburg-Vorpommern,53.876111973762775,13.997010552318827
13075137,Usedom,Mecklenburg-Vorpommern,53.86755771283876,13.913473406574939
13076055,Greven,Mecklenburg-Vorpommern,53.46881869156409,10.785585981413348
13076122,Schwanheide,Mecklenburg-Vorpommern,53.435803890274876,10.66726538377025
13076067,Karenz,Mecklenburg-Vorpommern,53.23599726098738,11.349325186608615
13076126,Spornitz,Mecklenburg-Vorpommern,53.4049253489299,11.701451305848613
14522070,Claußnitz,Sachsen,50.939179875678605,12.880498849894769
14522550,Taura,Sachsen,50.910767770371294,12.855613080497136
14523170,Lengenfeld,Sachsen,50.58370698466757,12.37719521297104
14523245,Muldenhammer,Sachsen,50.428844664027054,12.49538870314616
14523380,Steinberg,Sachsen,50.54437424278032,12.476951404063637
14625110,Doberschau-Gaußig,Sachsen,51.13686398070067,14.340038337636493
14625460,Puschwitz,Sachsen,51.24722369475072,14.28578832749411
01051073,Marnerdeich,Schleswig-Holstein,53.94933288429367,8.988653825039535
01051114,Tellingstedt,Schleswig-Holstein,54.220345541061874,9.276895455819128
01051131,Westerborstel,Schleswig-Holstein,54.218199200427456,9.245470206542619
01051139,Süderdorf,Schleswig-Holstein,54.21125617690478,9.339563560808532
01051033,Friedrichsgabekoog,Schleswig-Holstein,54.152483350042644,8.945517748897512
01053050,Hamwarde,Schleswig-Holstein,53.451050470026345,10.422434775283332
01053033,Giesensdorf,Schleswig-Holstein,53.68851801650827,10.715592339861441
01054095,Oldenswort,Schleswig-Holstein,54.3646532003251,8.938876947037226
01054145,Vollerwiek,Schleswig-Holstein,54.29016774665896,8.794061328879454
01054089,Norddorf auf Amrum,Schleswig-Holstein,54.68179072687921,8.326234503803986
01054016,Bosbüll,Schleswig-Holstein,54.82050819764097,8.844157183494545
01057038,Kletkamp,Schleswig-Holstein,54.24305045583022,10.667258198578251
01058021,Bokel,Schleswig-Holstein,54.22347394744344,9.780789243918289
01058133,Reesdorf,Schleswig-Holstein,54.195204191587734,10.061037384564907
01058127,Owschlag,Schleswig-Holstein,54.39160830974247,9.598422644103172
01058115,Nindorf,Schleswig-Holstein,54.13096019590819,9.696979065796304
01059138,Langstedt,Schleswig-Holstein,54.6091439485765,9.387837689357
01059006,Böel,Schleswig-Holstein,54.6477840587875,9.700431030025698
01059060,Mohrkirch,Schleswig-Holstein,54.67788320891016,9.705190912099432
01059084,Süderfahrenstedt,Schleswig-Holstein,54.58638263749227,9.581111213602922
01059186,Steinbergkirche,Schleswig-Holstein,54.7689748229787,9.738549445294163
01060028,Groß Kummerfeld,Schleswig-Holstein,54.035324851432385,10.09097529304451
01061041,Hohenfelde,Schleswig-Holstein,53.847760993042726,9.62595151315697
01062061,Reinfeld (Holstein),Schleswig-Holstein,53.8372505454941,10.483889769246252
01062051,Nienwohld,Schleswig-Holstein,53.78491962071357,10.188758868723685
01062008,Barnitz,Schleswig-Holstein,53.8064777729415,10.486754462588713
01062088,Brunsbek,Schleswig-Holstein,53.594454780034916,10.28309477310026
03151035,Wagenhoff,Niedersachsen,52.552938569208415,10.535544667908216
03154008,Grasleben,Niedersachsen,52.31565519005708,11.003978100504817
03154502,Helmstedt,Niedersachsen,52.24489768007364,11.03914499626764
03155007,Katlenburg-Lindau,Niedersachsen,51.66502845110945,10.097311406675352
03251040,Sulingen,Niedersachsen,52.67457397261163,8.785399507572793
03254028,Sarstedt,Niedersachsen,52.24036993546871,9.85560522508166
03256005,Drakenburg,Niedersachsen,52.690742969088696,9.217432800965264
03256002,Binnen,Niedersachsen,52.63041852725296,9.100553878850375
03256021,Marklohe,Niedersachsen,52.66226881612006,9.137342773575865
03257033,Sachsenhagen,Niedersachsen,52.39659267011379,9.250719604293614
03351015,Hohne,Niedersachsen,52.59232629355218,10.361206751102099
03351001,Adelheidsdorf,Niedersachsen,52.56099152227826,10.030538673761335
03353007,Drage,Niedersachsen,53.39526906368386,10.296122868626261
03354027,Zernien,Niedersachsen,53.058779706144534,10.904455066613293
03357041,Scheeßel,Niedersachsen,53.163619781613605,9.490631797335242
03357019,Hamersen,Niedersachsen,53.250711617061654,9.473495676262214
03357029,Kalbe,Niedersachsen,53.30598683846223,9.564495826902741
03357028,Horstedt,Niedersachsen,53.18185875912742,9.223859102321718
03358021,Soltau,Niedersachsen,52.99589049464044,9.856485723454933
03359039,Steinkirchen,Niedersachsen,53.57229947067892,9.58881659282714
03452003,Berumbur,Niedersachsen,53.591238879929065,7.314821298721479
03453008,Garrel,Niedersachsen,52.94875042588005,8.04168186368842
03454056,Walchum,Niedersachsen,52.92889924495654,7.231387592381558
03454060,Wippingen,Niedersachsen,52.92181915479605,7.414105447336117
03454006,Breddenberg,Niedersachsen,52.96009216462432,7.59083546565101
03454051,Surwold,Niedersachsen,52.99126942145382,7.5167415664174495
05370004,Erkelenz,Nordrhein-Westfalen,51.06784638779276,6.338803731339228
05374024,Marienheide,Nordrhein-Westfalen,51.07604289886724,7.536832987896243
05570020,Ennigerloh,Nordrhein-Westfalen,51.85885303711622,8.025703893995296
05758008,Enger,Nordrhein-Westfalen,52.13873658438971,8.553619423416603
05758024,Löhne,Nordrhein-Westfalen,52.19916700841195,8.722629388549366
05758036,Vlotho,Nordrhein-Westfalen,52.14705093733515,8.838023670553987
05766028,Extertal,Nordrhein-Westfalen,52.091361498981634,9.098338945228521
05766048,Leopoldshöhe,Nordrhein-Westfalen,52.00877635718655,8.687272624136343
05766056,Oerlinghausen,Nordrhein-Westfalen,51.947967028968684,8.675669360644404
05958008,Bestwig,Nordrhein-Westfalen,51.34059935359068,8.401035526162094
05958016,Eslohe (Sauerland),Nordrhein-Westfalen,51.24870004722735,8.175228088978011
05974008,Bad Sassendorf,Nordrhein-Westfalen,51.581297077089054,8.186711968856727
05978008,Bönen,Nordrhein-Westfalen,51.59565409218583,7.769305703207879
06431022,Zwingenberg,Hessen,49.72306737961951,8.594747818893497
06433005,Ginsheim-Gustavsburg,Hessen,49.97519572872338,8.333959145469292
06434005,Königstein im Taunus,Hessen,50.19246851654966,8.461920417151413
06435011,Großkrotzenburg,Hessen,50.08534194770425,8.976780261613863
06439001,Aarbergen,Hessen,50.24948352521354,8.083357519752923
06440006,Echzell,Hessen,50.39066552416587,8.89592091345268
06534021,Wetter (Hessen),Hessen,50.91523343220471,8.724024980334615
06535019,Wartenberg,Hessen,50.621812944379116,9.454847462412943
06631021,Poppenhausen (Wasserkuppe),Hessen,50.49878175340061,9.88613968723734
06632010,Hohenroda,Hessen,50.81236655121441,9.924592246017276
06633013,Hofgeismar,Hessen,51.50732631716528,9.41486705169679
07131079,Trierscheid,Rheinland-Pfalz,50.35048579093179,6.815821430522405
07131029,Hönningen,Rheinland-Pfalz,50.46441099654397,6.947481899043551
07131059,Oberdürenbach,Rheinland-Pfalz,50.46176701241785,7.149396961325054
07132059,Kausen,Rheinland-Pfalz,50.744173884214064,7.876575005770776
07132040,Gieleroth,Rheinland-Pfalz,50.66623179711667,7.672443648226498
07132099,Schöneberg,Rheinland-Pfalz,50.66174256590621,7.605370637926716
07132119,Ziegenhain,Rheinland-Pfalz,50.677948872233685,7.529900501118741
07133013,Bockenau,Rheinland-Pfalz,49.842173726028754,7.672110532882265
07133014,Boos,Rheinland-Pfalz,49.793504494789325,7.717955322201565
07133043,Hennweiler,Rheinland-Pfalz,49.82945695978453,7.439623118781989
07133084,Reiffelbach,Rheinland-Pfalz,49.684209426067056,7.686497560737419
07133035,Guldental,Rheinland-Pfalz,49.890185320071836,7.844047954877605
07134021,Eckersweiler,Rheinland-Pfalz,49.55927006611893,7.29270587276738
07134068,Reichenbach,Rheinland-Pfalz,49.64332386297447,7.27902833445496
07134075,Ruschberg,Rheinland-Pfalz,49.618624659836094,7.290078365652935
07135023,Düngenheim,Rheinland-Pfalz,50.262828721630825,7.167530761086658
07135018,Büchel,Rheinland-Pfalz,50.1800238039845,7.083156758824679
07135035,Gillenbeuren,Rheinland-Pfalz,50.15255180753846,7.014591289455672
07135078,Schmitt,Rheinland-Pfalz,50.16521165835587,7.012472607699226
07135088,Walhausen,Rheinland-Pfalz,50.02334597112871,7.28003197180334
07137041,Kalt,Rheinland-Pfalz,50.27037036909058,7.393968565167573
07137019,Ditscheid,Rheinland-Pfalz,50.29147183552946,7.0639731455600945
07137225,Urmitz,Rheinland-Pfalz,50.41023652696898,7.522263984648051
07137221,Rhens,Rheinland-Pfalz,50.27582049431245,7.580960219107879
07138034,Kleinmaischeid,Rheinland-Pfalz,50.512394853285834,7.606054421037455
07138055,Ockenfels,Rheinland-Pfalz,50.580974764130694,7.281677194235452
07138052,Oberdreis,Rheinland-Pfalz,50.62846233944551,7.670903136113319
07140006,Bärenbach,Rheinland-Pfalz,49.95255228706086,7.29537239942186
07140012,Bergenhausen,Rheinland-Pfalz,50.027266527641046,7.5697950145721595
07141022,Cramberg,Rheinland-Pfalz,50.3397161272138,7.94653729822052
07141040,Eschbach,Rheinland-Pfalz,50.210689125546175,7.7200669404118605
07141099,Nochern,Rheinland-Pfalz,50.17855174294514,7.729350010439281
07141001,Allendorf,Rheinland-Pfalz,50.27147123801977,8.00547412398843
07141020,Burgschwalbach,Rheinland-Pfalz,50.277954689957724,8.08666370936695
07143216,Dreisbach,Rheinland-Pfalz,50.615639523014785,7.9302521705508875
07143255,Lautzenbrücken,Rheinland-Pfalz,50.67591447073193,7.955518568272634
07143264,Mörlen,Rheinland-Pfalz,50.69117604948184,7.893441723015547
07143236,Heimborn,Rheinland-Pfalz,50.710771516111336,7.765063492117596
07143267,Mudenbach,Rheinland-Pfalz,50.66938478407245,7.735957619465872
07143020,Gackenbach,Rheinland-Pfalz,50.36384016103766,7.860105510949354
07143061,Quirnbach,Rheinland-Pfalz,50.517920124361076,7.792504557604311
07143069,Sessenhausen,Rheinland-Pfalz,50.524324526691885,7.699358730364846
07143209,Berzhahn,Rheinland-Pfalz,50.53687606613689,8.004903953897278
07143224,Gemünden,Rheinland-Pfalz,50.556321921291136,8.018033869956952
07143238,Hergenroth,Rheinland-Pfalz,50.58131124973209,7.966226018462771
07143049,Moschheim,Rheinland-Pfalz,50.48340200126565,7.8396004623285656
07231007,Bergweiler,Rheinland-Pfalz,49.97332611360385,6.818527978477951
07231033,Flußbach,Rheinland-Pfalz,50.020072631027176,6.928377715878112
07231501,Irmenach,Rheinland-Pfalz,49.92188931502674,7.185299892486307
07232246,Jucken,Rheinland-Pfalz,50.04807004520223,6.229964163835115
07232085,Nasingen,Rheinland-Pfalz,49.97780179312442,6.26095141514844
07232236,Heckhuscheid,Rheinland-Pfalz,50.17882400948547,6.211749176351184
07232250,Kleinlangenfeld,Rheinland-Pfalz,50.27335099154714,6.4921376524923105
07232332,Hersdorf,Rheinland-Pfalz,50.16669497887181,6.5164279753487175
07232006,Auw an der Kyll,Rheinland-Pfalz,49.89771074229267,6.61702833224853
07232083,Mülbach,Rheinland-Pfalz,49.96863920342067,6.400804254418826
07232135,Wilsecker,Rheinland-Pfalz,50.02752888706817,6.581894425672365
07233025,Gefell,Rheinland-Pfalz,50.236122680182845,6.9063105267609375
07233064,Schönbach,Rheinland-Pfalz,50.2134939116202,6.944177686091922
07233075,Üdersdorf,Rheinland-Pfalz,50.1463170859469,6.80930294845948
07233003,Beinhausen,Rheinland-Pfalz,50.26425706564593,6.890367491573255
07233035,Jünkerath,Rheinland-Pfalz,50.35543037678528,6.568312612582157
07235045,Hermeskeil,Rheinland-Pfalz,49.65729726219866,6.9470606872177
07235021,Farschweiler,Rheinland-Pfalz,49.721227596379684,6.8397772508946515
07235103,Osburg,Rheinland-Pfalz,49.69664235541551,6.812974642311568
07235116,Riveris,Rheinland-Pfalz,49.71973809970295,6.764623885514853
07235141,Waldrach,Rheinland-Pfalz,49.74663460847198,6.7576283189276225
07235136,Trassem,Rheinland-Pfalz,49.581561327471306,6.533534155010635
07331001,Albig,Rheinland-Pfalz,49.7775853498685,8.13084798672755
07331028,Frettenheim,Rheinland-Pfalz,49.761966088348174,8.244012138307745
07332009,Deidesheim,Rheinland-Pfalz,49.406258121148376,8.143663975417892
07332007,Carlsberg,Rheinland-Pfalz,49.498579798164215,8.034652421764763
07333035,Jakobsweiler,Rheinland-Pfalz,49.61576356379336,7.960547607421637
07333037,Katzenbach,Rheinland-Pfalz,49.64591209425452,7.803177516588526
07333078,Unkenbach,Rheinland-Pfalz,49.71366235533989,7.740385690700133
07333201,Rathskirchen,Rheinland-Pfalz,49.61477366114801,7.721406470366048
07334002,Berg (Pfalz),Rheinland-Pfalz,48.98204490066128,8.204874201638036
07334016,Leimersheim,Rheinland-Pfalz,49.12645469134205,8.342406847557283
07335201,Lambsborn,Rheinland-Pfalz,49.3644853337373,7.434177666594734
07335018,Kindsbach,Rheinland-Pfalz,49.41614563636719,7.628301458236395
07336050,Kirrweiler,Rheinland-Pfalz,49.63679999733998,7.4913868411996205
07336073,Oberweiler-Tiefenbach,Rheinland-Pfalz,49.59808404683291,7.619711865526018
07336090,Rutsweiler an der Lauter,Rheinland-Pfalz,49.56721899013954,7.609183974002356
07336097,Thallichtenberg,Rheinland-Pfalz,49.56453275131453,7.344895328557746
07338021,Otterstadt,Rheinland-Pfalz,49.371632908419535,8.465286254431632
07339010,Dalheim,Rheinland-Pfalz,49.83138993376467,8.286580359869738
07339065,Welgesheim,Rheinland-Pfalz,49.88216663222181,7.965998443225438
07340033,Niederschlettenbach,Rheinland-Pfalz,49.085859882970134,7.845590505735004
07340049,Spirkelbach,Rheinland-Pfalz,49.19985387425931,7.875239793862833
07340204,Biedershausen,Rheinland-Pfalz,49.31677947511314,7.490511802122568
07340225,Wallhalben,Rheinland-Pfalz,49.319289111889546,7.51366766101316
08115003,Böblingen,Baden-Württemberg,48.68183353954607,9.019742751136322
08116078,Leinfelden-Echterdingen,Baden-Württemberg,48.68523520851781,9.14708834009435
08116079,Lenningen,Baden-Württemberg,48.54833888463287,9.501869814629433
08117031,Hohenstadt,Baden-Württemberg,48.53731816823312,9.665782259233056
08117030,Heiningen,Baden-Württemberg,48.66055862285451,9.656096371812836
08118050,Markgröningen,Baden-Württemberg,48.910378310850604,9.068918256869923
08119001,Alfdorf,Baden-Württemberg,48.858798716848305,9.703330675826853
08119038,Kirchberg an der Murr,Baden-Württemberg,48.94765378132469,9.3466417654728
08125039,Gundelsheim,Baden-Württemberg,49.292184025788124,9.190225294868597
08127046,Kirchberg an der Jagst,Baden-Württemberg,49.20291415529016,9.97719959929048
08127071,Rot am See,Baden-Württemberg,49.26568768988338,10.060521097484052
08128138,Ahorn,Baden-Württemberg,49.49181708265239,9.546010865856921
08135020,Herbrechtingen,Baden-Württemberg,48.61363331411367,10.156693209143258
08135025,Königsbronn,Baden-Württemberg,48.739030390120284,10.103236327248892
08135031,Sontheim an der Brenz,Baden-Württemberg,48.55379737339339,10.280316388233494
08136027,Gschwend,Baden-Württemberg,48.93329948764284,9.754618445272849
08136045,Neresheim,Baden-Württemberg,48.78201960200107,10.328718225756745
08136028,Heubach,Baden-Württemberg,48.78703388544999,9.944841824188439
08136068,Stödtlen,Baden-Württemberg,48.99949020298514,10.316232861803265
08215097,Kraichtal,Baden-Württemberg,49.133475433626906,8.73328254015069
08226062,Oftersheim,Baden-Württemberg,49.35851563064564,8.594519266649021
08226056,Neckargemünd,Baden-Württemberg,49.38981315531414,8.826188520602896
08235055,Oberreichenbach,Baden-Württemberg,48.73913639689867,8.632663229028537
08315084,Oberried,Baden-Württemberg,47.905541449247174,7.960820652730486
08315074,Müllheim,Baden-Württemberg,47.80847776211229,7.654320966984768
08316011,Emmendingen,Baden-Württemberg,48.123358110823155,7.8654677355958516
08317031,Friesenheim,Baden-Württemberg,48.378589870430204,7.895135088150515
08317116,Sasbach,Baden-Württemberg,48.633635327592245,8.136785930481311
08317096,Offenburg,Baden-Württemberg,48.47775972421576,7.943812402851374
08327007,Bubsheim,Baden-Württemberg,48.11948853230524,8.820273887697995
08335061,Öhningen,Baden-Württemberg,47.67858982662633,8.902176363150714
08336091,Weil am Rhein,Baden-Württemberg,47.60585455790649,7.610714557313172
08336079,Schönau im Schwarzwald,Baden-Württemberg,47.788166182077475,7.933138933221016
08337116,Wehr,Baden-Württemberg,47.625543255834664,7.915123038732201
08337022,Bonndorf im Schwarzwald,Baden-Württemberg,47.81278280881127,8.324574573282625
08337076,Murg,Baden-Württemberg,47.58334463044758,8.023268404694761
08415029,Grafenberg,Baden-Württemberg,48.569388510096395,9.306391918119006
08416023,Kusterdingen,Baden-Württemberg,48.49931803955292,9.112480973104999
08417008,Bisingen,Baden-Württemberg,48.30972142140301,8.931216862960257
08417031,Hechingen,Baden-Württemberg,48.352447552937704,8.976464646669388
08417015,Dormettingen,Baden-Württemberg,48.24322629240111,8.774225137461395
08425017,Berghülen,Baden-Württemberg,48.46421538556239,9.77177734568198
08425005,Altheim (Alb),Baden-Württemberg,48.58290338320023,10.018415822641494
08435034,Markdorf,Baden-Württemberg,47.71269877776857,9.386392429696823
08436008,Aulendorf,Baden-Württemberg,47.942185538023914,9.648954602788136
08436053,Königseggwald,Baden-Württemberg,47.92670660790298,9.42487536189064
08436006,Amtzell,Baden-Württemberg,47.713783389825075,9.75975177240821
09172114,Bad Reichenhall,Bayern,47.73010878472694,12.861024558132808
09172129,Ramsau b.Berchtesgaden,Bayern,47.58403959547929,12.871439197420925
09172131,Schneizlreuth,Bayern,47.68834527078417,12.79692161710851
09173113,Benediktbeuern,Bayern,47.68947358642693,11.422427160006158
09174115,Dachau,Bayern,48.26741015079707,11.44034490809661
09174131,Markt Indersdorf,Bayern,48.36971283100835,11.35991219844277
09175113,Baiern,Bayern,47.965177907495146,11.914604116833488
09176111,Adelschlag,Bayern,48.844211517666416,11.203906232961996
09176153,Pförring,Bayern,48.81975236946472,11.68762691725862
09179118,Eichenau,Bayern,48.165658261489035,11.31531503746231
09179119,Emmering,Bayern,48.181721954459626,11.29433700943084
09179134,Maisach,Bayern,48.2302769788119,11.254523294306432
09179136,Mammendorf,Bayern,48.20752341637,11.161063085646425
09181146,Windach,Bayern,48.05992076014638,11.024873127730809
09183125,Lohkirchen,Bayern,48.312209507615236,12.449761767969916
09184130,Ismaning,Bayern,48.240571631359956,11.704743801378617
09187174,Söchtenau,Bayern,47.91931694220053,12.230606624711822
09190160,Wildsteig,Bayern,47.668107412157646,10.9435814805603
09271126,Hunding,Bayern,48.845156367310956,13.173275500318958
09271143,Otzing,Bayern,48.75770945607727,12.816506718087638
09271152,Wallerfing,Bayern,48.68690563202464,12.877473316200623
09272143,Sankt Oswald-Riedlhütte,Bayern,48.92585829341948,13.409289717813905
09272128,Innernzell,Bayern,48.848434206140794,13.27272577454277
09272139,Philippsreut,Bayern,48.88027742199788,13.665846011938592
09274191,Wörth a.d.Isar,Bayern,48.62627361552907,12.340323770277962
09274145,Kröning,Bayern,48.534724758619305,12.367278015821896
09274118,Baierbach,Bayern,48.414339260394186,12.197378970157512
09274183,Velden,Bayern,48.369121174379444,12.268807980691063
09275150,Thyrnau,Bayern,48.60882375411272,13.550789898114369
09276129,Langdorf,Bayern,49.026879276901234,13.152483838317812
09371123,Gebenbach,Bayern,49.547417916935025,11.872771097883628
09373121,Dietfurt a.d.Altmühl,Bayern,49.02909892849525,11.590900172400037
09373140,Lauterhofen,Bayern,49.373008043908165,11.564916232632372
09374163,Vorbach,Bayern,49.81498142980062,11.753891896288204
09375180,Pentling,Bayern,48.96065192530959,12.060485423851338
09375116,Bach a.d.Donau,Bayern,49.023350383808236,12.294393433017952
09375120,Brennberg,Bayern,49.074169269398546,12.384863661933354
09375171,Mötzing,Bayern,48.904324744064475,12.40205886534646
09377146,Plößberg,Bayern,49.80254957661405,12.295723183712257
09472154,Hollfeld,Bayern,49.9375036445171,11.281709135800385
09473151,Neustadt b.Coburg,Bayern,50.311709209046164,11.11122426391695
09475142,Konradsreuth,Bayern,50.25549791132759,11.83938791957014
09475169,Schwarzenbach a.Wald,Bayern,50.27825804971793,11.61179836834363
09476164,Pressig,Bayern,50.36294834934035,11.31966635540287
09477143,Neuenmarkt,Bayern,50.09418375141871,11.570213252203539
09479111,Bad Alexandersbad,Bayern,50.012018771958836,12.028928579573202
09571188,Ohrenbach,Bayern,49.4696811387267,10.213607040936555
